AIRPORT,DISPLAY_AIRPORT_NAME,LATITUDE,LONGITUDE
01A,Afognak Lake Airport,58.10944444,-152.90666667
03A,Bear Creek Mining Strip,65.54805556,-161.07166667
04A,Lik Mining Camp,68.08333333,-163.16666667
05A,Little Squaw Airport,67.57000000,-148.18388889
06A,Kizhuyak Bay,57.74527778,-152.88277778
07A,Klawock Seaplane Base,55.55472222,-133.10166667
08A,Elizabeth Island Airport,59.15694444,-151.82916667
09A,Augustin Island,59.36277778,-153.43055556
1AK,Mertarvik Quarry Road Landing Strip,60.81833333,-164.51888889
1AK,Mertarvik Quarry Road Landing Strip,60.81833333,-164.51888889
1B1,Columbia County,42.28888889,-73.71027778
1B1,Columbia County,42.29138889,-73.71027778
1CA,Rio Vista Municipal,38.19333333,-121.70361111
1CT,Valley Farms,42.01361111,-72.47277778
1FL,NASA Shuttle Landing Facility,28.61500000,-80.69444444
1FL,Space Florida Launch Landing Facility,28.61500000,-80.69444444
1G4,Grand Canyon West,35.98611111,-113.81694444
1G4,Grand Canyon West,35.98611111,-113.81694444
1G4,Grand Canyon West,35.99027778,-113.81638889
1G4,Grand Canyon West,35.99027778,-113.81638889
1GA,Atlanta Speedway,33.39000000,-84.33111111
1GA,Henry County,33.39000000,-84.33111111
1N7,Blairstown Airport,40.97111111,-74.99750000
1NC,Halifax Northampton Regional,36.43944444,-77.70944444
1NJ,Aeroflex Andover,41.00861110,-74.73805556
1NY,Penn Yan Airport,42.63694444,-77.05277778
1NY,Penn Yan Airport,42.63694444,-77.05277778
1NY,Penn Yan Airport,42.63722222,-77.05277778
1OH,Lake County Executive,41.68416667,-81.38972222
1PA,Joseph A Hardy Connellsville,39.95916667,-79.65750000
1TN,Beech River Regional,35.65638889,-88.19527778
1TX,Moore County,35.85750000,-102.01333333
1VA,Warrenton Fauquier,38.58638889,-77.71055556
1WA,Deer Park Airport,47.96694444,-117.42861111
2AK,Deer Park,56.51972222,-134.67944444
2CA,Delano Municipal,35.74555556,-119.23638889
2FL,North Palm Beach County Gen Aviation,26.84583333,-80.22222222
2GA,Camilla Mitchell County,31.21305556,-84.23527778
2NC,Asheboro Regional,35.65444444,-79.89472222
2NJ,Southern Cross,39.65555556,-75.01444444
2NY,Sands Point Seaplane Base,40.82750000,-73.71694444
2PA,Heliport 76er,39.90333333,-75.16361111
2TN,Mark Anton,35.48611111,-84.93111111
2TX,Brenham Municipal,30.21972222,-96.37444444
2VA,Camp Peary Landing Strip,37.31277777,-76.63833333
2WA,Tacoma Seaplane Base,47.28333333,-122.47361111
2WK,Odessa Municipal,47.34750000,-118.67722222
3AK,Gold Mining Landing Strip,64.40972222,-155.49111111
3CA,Garberville Airport,40.08555556,-123.81416667
3FL,Wauchula Municipal,27.51500000,-81.88055556
3GA,Early County,31.39750000,-84.89472222
3NC,Hendersonville Airport,35.30749999,-82.43305556
3NJ,76ers Camden Heliport,39.94194444,-75.12833333
3NJ,Camden Airport,39.94194444,-75.01166667
3NY,Sebonac,40.89861111,-72.41055556
3PA,Conshohocken Heliport,40.06944444,-75.30222222
3TN,Elizabethton Municipal,36.37166667,-82.17277778
3TX,Lancaster Regional,32.57750000,-96.71750000
3VA,Middle Peninsula Regional,37.52138888,-76.76277778
4AK,Bradley Sky Ranch,64.75916667,-147.38777778
4CA,University,38.53138889,-121.78638889
4CL,El Mirage Field Adelanto,34.62500000,-117.60500000
4CL,El Mirage Field Adelanto,34.62555556,-117.59833333
4FL,Quincy Municipal,30.59777778,-84.55750000
4GA,Paulding Memorial Hospital Heliport,33.91972221,-84.85277778
4NC,Western Carolina Regional,35.19527778,-83.86305556
4NJ,Pomona Airport,39.47916667,-74.53944444
4NY,Johnson Landing Strip,41.81916667,-73.64333333
4PA,Total Rf Heliport,40.07083333,-74.93361111
4TX,Lajitas International,29.27722222,-103.68583333
5AK,Lawing Airport,60.41194444,-149.36944444
5CA,Gray Butte Field,34.56666666,-117.67027778
5FL,St George Island,29.64444444,-84.91555556
5GA,Tom B David Field,34.45527778,-84.93916667
5NJ,Prudential Center Heliport,40.73333333,-74.17194444
5NY,Malone Dufort,44.85361111,-74.32888889
5PA,Allentown Queen City Municipal,40.57027778,-75.48833333
5TX,South Texas International at Edinburg,26.44166667,-98.12222222
6AK,Newtok Seaplane Base,60.92361111,-164.65611111
6B0,Middlebury State,43.98472222,-73.09583333
6B0,Middlebury State,43.98472222,-73.09583333
6B0,Middlebury State,43.98555556,-73.09555556
6B0,Middlebury State,43.98555556,-73.09555556
6B0,Middlebury State,43.98638889,-73.09555556
6CA,Little River Airport,39.26194444,-123.75388889
6GA,Habersham County,34.49972222,-83.55666667
6NJ,Ocean Casino Resort,39.36222222,-74.41611111
6NY,Sag Harbor,41.00888889,-72.27527778
6PA,Franklin County Regional,39.97305556,-77.64333333
6TX,Real County,29.74555556,-99.76083333
7AK,Akun Airport,54.14472222,-165.60416667
7NJ,Meadowlands 2 Nj Complex Heliport,40.81555556,-74.07055556
7NY,Shelter Island,41.07916667,-72.33916667
7TX,Possum Kingdom,32.92333333,-98.43694444
8AK,Willow Conocophillips,70.11083333,-152.12972222
8F3,Crosbyton Municipal,33.62388889,-101.24083333
8NJ,Helo Kearny Heliport,40.73166667,-74.11666667
8NY,Noyack ,41.01611110,-72.33916667
8TX,McGregor Exec,31.48500000,-97.31666667
8TX,McGregor Executive,31.48500000,-97.31666667
9NY,Sbnysh,41.09277778,-72.31583333
9TX,Center Municipal,31.83166667,-94.15638889
A01,Blair Lake,64.36361111,-147.36388889
A01,Blair Lake,64.36416667,-147.36138889
A02,Deadmans Bay Airport,57.06666667,-153.93777778
A03,Hallo Bay Airport,58.45750000,-154.02333333
A04,Red Lake Airport,57.27722222,-154.34222222
A05,Shell Lake Airport,61.96388889,-151.55583333
A06,Navigator Airstrip,65.65555556,-165.35638889
A07,Roland Norton Memorial,66.76611111,-160.15277778
A07,Roland Norton Memorial Airstrip,66.76583333,-160.15250000
A08,Pillar Bay Airport,56.59805556,-134.24277778
A09,Johnstone Point Airport,60.48166667,-146.58416667
A09,Johnstone Point Airport,60.48166667,-146.58416667
A09,Johnstone Point Airport,60.48222222,-146.58222222
A09,Johnstone Point Airport,60.48222222,-146.58222222
A11,Bell Creek Airport,60.78388889,-159.54027778
A12,Cinnabar Airport,60.78527778,-158.86444444
A13,Mountaintop Mine Airport,61.39027778,-157.99555556
A14,Whitebear Airport,61.18888889,-159.85833333
A15,Puviaq Airport,70.71555556,-154.40694444
A15,Puviaq Airport,70.71861111,-154.38833333
A16,Arley Lake Airport,70.74694444,-155.36083333
A17,Port Vita Airport,58.06555556,-153.07250000
A18,Kantishna Airport,63.54111111,-150.99500000
A18,Kantishna Airport,63.54111111,-150.99500000
A18,Kantishna Airport,63.54166667,-150.99388889
A18,Kantishna Airport,63.54166667,-150.99388889
A1K,Point Thomson Airstrip,70.13611111,-146.29000000
A1K,Point Thomson Airstrip,70.13611111,-146.29000000
A1L,Cullman Regional Folsom Field,34.26861111,-86.85805556
A20,Alpine Airstrip,70.34416667,-150.94472222
A21,Serpentine Airport,65.85138889,-164.70277778
A22,Driftwood Bay Airport,53.97277778,-166.85694444
A23,Bradley Lake Airport,59.77611111,-151.96361111
A24,Chilkat Lake Airport,59.33166667,-135.89666667
A25,Nugget Creek Airport,59.28833333,-136.17388889
A26,Ivotuk Airstrip,68.48333333,-155.73333333
A27,Pogo Mines Airport,64.44000000,-144.93638889
A28,Ayakulik River Airport,57.25388889,-154.42222222
A29,Kiluda Bay Airport,57.32305556,-153.14944444
A2K,Bartletts Airport,58.23305556,-157.36638889
A2L,Isbell Field,34.47361111,-85.72138889
A30,Terror Lake Airport,57.96388889,-153.05833333
A31,Selief Bay Airport,58.98277778,-153.18333333
A34,Laura Lake Airport,58.36194444,-152.31222222
A35,Bullen Point AFS,70.17277778,-146.83611111
A36,Deep Bay Airport,55.56027778,-131.65555556
A37,Kako Airport,61.89888889,-161.43972222
A37,Kako Airport,61.89888889,-161.43805556
A38,Molly Creek Airport,64.09722222,-143.26666667
A39,Ptarmigan Lake Airport,61.86611111,-141.15972222
A3K,Smith Bay Airport,70.76583333,-154.23083333
A40,Cape Simpson Airport,71.05694444,-154.72833333
A41,Kogru River Airport,70.57472222,-152.25888889
A41,Kogru River Airport,70.57611111,-152.27111111
A42,Teshepkuk Lake Airport,70.35833333,-153.19666667
A43,Trident Basin Seaplane Base,57.78083333,-152.39111111
A45,Lake Florence Airport,57.81666667,-134.58333333
A46,Lake Hasselborg Airport,57.70000000,-134.26666667
A47,Distin Lake Airport,57.61666667,-134.36666667
A48,Port Hobron Airport,57.15000000,-153.15000000
A49,Mooseville Airstrip Airport,70.28444444,-152.21194444
A4K,Dune Lake Airport,64.42138889,-149.89444444
A50,Big Bay Airport,58.56250000,-152.59611111
A51,Wien Lake Airport,64.35277778,-151.27500000
A52,Silver Salmon Creek Airport,59.96388889,-152.68222222
A53,Blear Lake Airport,64.33333333,-147.50000000
A54,Cannery Bay Airport,53.68333333,-166.75000000
A56,Johnsons Landing,56.03666667,-160.26611111
A57,International Seafoods Airport,58.26666667,-157.53333333
A58,Cosna River Airport,64.50000000,-151.66666667
A59,Ivatuk Airport,68.48777778,-155.75750000
A5K,Paxson Airport,63.02444444,-145.50055556
A5K,Paxson Airport,63.02444444,-145.50055556
A61,Cape Sarichef AFS,54.58333333,-164.91250000
A61,Cape Sarichef Airport,54.58250000,-164.91444444
A62,Taylor Mountain,60.86777778,-157.39194444
A63,Coal Creek,65.31111111,-143.13527778
A63,Coal Creek,65.31138889,-143.13555556
A63,Coal Creek,65.31138889,-143.13555556
A63,Coal Creek,65.31166667,-143.13416667
A63,Coal Creek,65.31166667,-143.13416667
A65,Karluk Portage Airport,57.53833333,-154.16444444
A66,Hope Airport,60.90416667,-149.62388889
A66,Hope Airport,60.90416667,-149.62388889
A66,Hope Airport,60.90555556,-149.62388889
A66,Hope Airport,60.90722222,-149.62277778
A66,Hope Airport,60.90722222,-149.62277778
A67,Viekoda Bay Airport,57.84944444,-153.11527778
A69,Cathedral Strip,55.74000000,-162.12527778
A6K,Van Curlers Sandbar,65.04472222,-145.42305556
A70,Village Islands Airport,57.77416667,-153.54472222
A71,Bear Cove Farm,59.73833333,-151.03000000
A72,Chinitna Bay Airport,59.83333333,-152.58472222
A73,McKinley National Park,63.73250000,-148.91055556
A74,Dog Fish Bay,59.24111111,-151.87722222
A75,Malina Bay Airport,58.17194444,-152.89416667
A76,Red Fox Bay Airport,58.46444444,-152.59305556
A77,Shearwater Airport,57.34333333,-152.89722222
A78,Lake,71.03000000,-154.44361111
A79,Cape Simpson No. 1,71.50166667,-154.03388889
A7K,Nakochna Airport,62.03611111,-151.45222222
A80,Cape Simpson No. 7,70.57388889,-155.32138889
A81,Cape Simpson #1,70.66277778,-154.83666667
A82,Nikiski Private Airstrip,60.69027778,-151.28888889
A83,Petrof Point Airport,59.37638889,-150.76500000
A84,Denali West Lodge Private,63.75555556,-147.93000000
A85,Big River Airport,61.85944444,-154.27666667
A87,Carry Inlet Airport,58.58305556,-152.44583333
A89,Montague Island Airport,59.92500000,-147.51666667
A8K,Granite Point Ndb,60.96166667,-151.33166667
A90,Shannon Pond Airport,59.03916667,-158.46388889
A91,Omalik Lagoon Airport,69.15555556,-163.49722222
A92,Omolik Lagoon Airport,69.14805556,-163.51027778
A93,Bradley Lake Project Airport,59.79166667,-151.26666667
A94,Ice Strip,70.57416667,-155.31805556
A95,Ice Strip,70.31194444,-153.24916667
A96,Ice Strip,70.98083333,-157.09500000
A97,Akulik Air Strip,68.98555556,-163.47972222
A98,Deadfall Air Strip,69.17083333,-163.25638889
A99,Eagle Creek Airport,68.67666667,-162.64694444
A9K,Era Denali Heliport,63.73833333,-148.88166667
AA1,Ice Kong,59.95277778,-162.61694444
AA2,Icicle Seafoods,58.70944444,-157.07138889
AA4,Glacier Split,59.63333333,-151.20833333
AA5,Selby Lake Airport,66.95583333,-155.61500000
AA7,Independence Creek Airport,65.67361111,-162.46416667
AA8,Badami,70.13750000,-147.03055556
AA9,Napaimute Pioneer Airfield,61.53638889,-158.73888889
AAA,Anaa Airport,-17.35388889,-145.50972222
AAA,Anaa Airport,-17.35250000,-145.51000000
AAB,Arrabury Station,-26.70000000,141.04166667
AAC,El Arish International,31.05444444,33.81916667
AAC,El Arish International,31.05555556,33.82750000
AAC,El Arish International,31.07333333,33.83583333
AAC,El Arish International,31.07638889,33.83333333
AAD,Ad-Dabbah Airport,18.05000000,30.93361111
AAE,Rabah Bitat,36.82166667,7.81000000
AAE,Rabah Bitat,36.82222222,7.80944444
AAE,Rabah Bitat,36.82944444,7.81388889
AAF,Apalachicola Regional,29.72750000,-85.02750000
AAF,Apalachicola Regional,29.72750000,-85.02750000
AAF,Apalachicola Regional Cleve Randolph Field,29.72750000,-85.02750000
AAF,Apalachicola Regional Cleve Randolph Field,29.72750000,-85.02750000
AAH,Aachen Merzbruck,50.82305556,6.18750000
AAH,Aachen Merzbrueck,50.82166667,6.18416667
AAH,Aachen Merzbrueck,50.82305556,6.18750000
AAH,Aachen Merzbrueck,50.82305556,6.18750000
AAH,Aachen/Merzbruck,50.82305556,6.18611111
AAH,Aachen/Merzbruck,50.82305556,6.18611111
AAH,Aachen/Merzbruck,50.82305556,6.18750000
AAI,Arraias Airport,-13.02583333,-46.88361111
AAI,Arraias Airport,-13.02583333,-46.88361111
AAI,Arraias Airport,-13.02500000,-46.88416667
AAI,Arraias Airport,-13.02500000,-46.88416667
AAI,Arraias Airport,-12.91666667,-46.93333333
AAL,Aalborg Airport,57.09277778,9.84916667
AAL,Aalborg Airport,57.09305556,9.85000000
AAL,Aalborg Airport,57.09416667,9.85583333
AAM,Malamala,-24.81694444,31.54416667
AAM,Malamala,-24.80833333,31.54166667
AAN,Al Ain International,24.26166667,55.60916667
AAN,Al Ain International,24.26166667,55.60916667
AAN,Al Ain International,24.26194444,55.60750000
AAO,Anaco Airport,9.43000000,-64.47083333
AAO,Anaco Airport,9.43000000,-64.47083333
AAO,Anaco Airport,9.43027778,-64.47083333
AAO,Anaco Airport,9.43027778,-64.47083333
AAO,Anaco Airport,9.43194444,-64.46388889
AAQ,Anapa Airport,45.00222222,37.34722222
AAQ,Vityazevo,44.90000000,37.31666667
AAQ,Vityazevo,45.00222222,37.34722222
AAQ,Vityazevo,45.00222222,37.34722222
AAR,Aarhus Airport,56.30000000,10.61888889
AAR,Aarhus Airport,56.30416667,10.61944444
AAR,Tirstrup,56.30388889,10.62000000
AAR,Tirstrup,56.31027778,10.61805556
AAU,Asau W Sam,-13.51666667,-172.65000000
AAX,Araxa Airport,-19.56805556,-46.92916667
AAX,Araxa Airport,-19.56333333,-46.96027778
AAX,Romeu Zema,-19.56333333,-46.96027778
ABA,Abakan Airport,53.74000000,91.38500000
ABA,Abakan Airport,53.74000000,91.38500000
ABA,Abakan Airport,53.74000000,91.38527778
ABD,Abadan Airport,30.36527778,48.23305556
ABD,Abadan Airport,30.36611111,48.23222222
ABD,Abadan Airport,30.36611111,48.23222222
ABE,Lehigh Valley International,40.65222222,-75.44055556
ABE,Lehigh Valley International,40.65222222,-75.44055556
ABE,Lehigh Valley International,40.65222222,-75.44027778
ABE,Lehigh Valley International,40.65222222,-75.44027778
ABE,Lehigh Valley International,40.65250000,-75.44027778
ABE,Lehigh Valley International,40.65472222,-75.43833333
ABI,Abilene Regional,32.40944444,-99.67972222
ABI,Abilene Regional,32.41111111,-99.68166667
ABI,Abilene Regional,32.41138889,-99.68194444
ABJ,Abidjan Felix Houphouet Boigny International,5.25555556,-3.92916667
ABJ,Abidjan Felix Houphouet Boigny International,5.26138889,-3.92583333
ABJ,Abidjan Felix Houphouet Boigny International,5.26138889,-3.92583333
ABJ,Felix Houphouet Boigny Abidjan,5.26138889,-3.92583333
ABJ,Felix Houphouet Boigny Abidjan International,5.26138889,-3.92583333
ABJ,Felix Houphouet Boigny Abidjan International,5.26138889,-3.92583333
ABK,Kabri Dar Airport,6.73388889,44.26611111
ABK,Kebri Dahar,6.73277778,44.24138889
ABK,Kebri Dahar,6.73277778,44.24138889
ABK,Kebri Dahar,6.73277778,44.24166667
ABK,Kebri Dahar,6.73277778,44.24166667
ABL,Ambler River,67.08750000,-157.84583333
ABQ,Albuquerque International Sunport,35.03888889,-106.60833333
ABQ,Albuquerque International Sunport,35.03888889,-106.60833333
ABQ,Albuquerque International Sunport,35.04027778,-106.60916667
ABQ,Albuquerque International Sunport,35.04027778,-106.60916667
ABQ,Albuquerque International Sunport,35.04166667,-106.60638889
ABR,Aberdeen Regional,45.44666667,-98.42250000
ABR,Aberdeen Regional,45.44666667,-98.42250000
ABR,Aberdeen Regional,45.44833333,-98.42250000
ABR,Aberdeen Regional,45.44916667,-98.42194444
ABR,Aberdeen Regional,45.44916667,-98.42194444
ABR,Aberdeen Regional,45.44972222,-98.42166667
ABS,Abu Simbel Airport,22.37222222,31.61527778
ABS,Abu Simbel Airport,22.37472222,31.60944444
ABS,Abu Simbel Airport,22.37472222,31.60944444
ABS,Abu Simbel Airport,22.37583333,31.61166667
ABS,Abu Simbel Airport,22.37583333,31.61166667
ABT,Al Baha,20.29611111,41.63416667
ABT,Al-Baha Airport,20.29611111,41.63416667
ABT,King Saud Bin Abdulaziz,20.29611111,41.63416667
ABT,King Saud Bin Abdulaziz,20.29611111,41.63416667
ABT,King Saud Bin Abdulaziz,20.29833333,41.63583333
ABV,Abuja Nnamdi Azikiwe International,9.00555556,7.26611111
ABV,Abuja Nnamdi Azikiwe International,9.00666667,7.26305556
ABV,Abuja Nnamdi Azikiwe International,9.00666667,7.26305556
ABV,Nnamdi Azikiwe International,9.00666667,7.26305556
ABV,Nnamdi Azikiwe International,9.00666667,7.26305556
ABX,Albury Airport,-36.06833333,146.97666667
ABX,Albury Airport,-36.06777778,146.95805556
ABY,Southwest Georgia Regional,31.53222222,-84.19611111
ABY,Southwest Georgia Regional,31.53555556,-84.19444444
ABZ,Aberdeen Dyce,57.20194444,-2.19777778
ABZ,Aberdeen Dyce,57.20194444,-2.19777778
ABZ,Aberdeen Dyce,57.20250000,-2.19805556
ABZ,Aberdeen Dyce,57.20361111,-2.19916667
ABZ,Aberdeen Dyce,57.20361111,-2.19916667
ABZ,Aberdeen Dyce,57.20416667,-2.19861111
ACA,Acapulco International,16.75722222,-99.75388889
ACA,General Juan N Alvarez International,16.75555556,-99.76694444
ACA,General Juan N Alvarez International,16.75694444,-99.75388889
ACB,Antrim County,44.98472222,-85.19916667
ACB,Antrim County,44.98861111,-85.19833333
ACC,Accra Kotoka International,5.59527778,-0.17083333
ACC,Accra Kotoka International,5.60444444,-0.16750000
ACC,Kotoka International,5.60444444,-0.16750000
ACC,Kotoka International,5.60500000,-0.16722222
ACE,Lanzarote,28.94250000,-13.60472222
ACE,Lanzarote,28.94555556,-13.60527778
ACH,St Gallen Altenrhein,47.48500000,9.56000000
ACH,St Gallen Altenrhein,47.48527778,9.56000000
ACI,Alderney Airport,49.70611111,-2.21472222
ACI,Alderney Airport,49.70611111,-2.21472222
ACI,Alderney Airport,49.70666667,-2.21472222
ACI,Alderney Airport,49.70666667,-2.21472222
ACI,Alderney Airport,49.70666667,-2.21444444
ACI,Alderney Airport,49.70694444,-2.21527778
ACI,Alderney Airport,49.70694444,-2.21472222
ACK,Nantucket Memorial,41.25305556,-70.06027778
ACK,Nantucket Memorial,41.25305556,-70.06027778
ACK,Nantucket Memorial,41.25305556,-70.06000000
ACK,Nantucket Memorial,41.25305556,-70.06000000
ACK,Nantucket Memorial,41.25333333,-70.06055556
ACK,Nantucket Memorial,41.25666667,-70.05972222
ACT,Waco Regional,31.61138889,-97.22861111
ACT,Waco Regional,31.61222222,-97.23027778
ACU,Achutupo Airport,8.43333333,-77.96666667
ACV,Arcata,40.97777778,-124.10833333
ACV,Arcata,40.97805556,-124.10861111
ACV,Arcata,40.97805556,-124.10861111
ACV,Arcata,40.97916667,-124.10750000
ACV,California Redwood Coast Humboldt County,40.97777778,-124.10833333
ACV,California Redwood Coast Humboldt County,40.97777778,-124.10833333
ACY,Atlantic City International,39.45750000,-74.57805556
ACY,Atlantic City International,39.45750000,-74.57722222
ACY,Nafec Atl,39.45666667,-74.57777778
ACY,Nafec Atlantic City,39.45611111,-74.57805556
ADA,Adana International,36.98222222,35.28027778
ADA,Adana Sakirpasa,36.98361111,35.28083333
ADB,Adnan Menderes,38.29222222,27.15583333
ADB,Adnan Menderes,38.29472222,27.16000000
ADC,Andakombe Airport,-7.13722222,145.74500000
ADC,Andakombe Airport,-7.13638889,145.74388889
ADC,Andakombe Airport,-7.13611111,145.74416667
ADD,Bole International,8.97805556,38.79944444
ADD,Haile Selassie I International,8.97805556,38.79944444
ADE,Aden International,12.82777778,45.03055556
ADE,Aden International,12.82944444,45.02888889
ADE,Aden International,12.83444444,45.02888889
ADJ,King Abdullah Ben,31.97222222,35.99000000
ADJ,Marka International,31.97222222,35.99000000
ADJ,Marka International,31.97277778,35.99166667
ADK,Adak,51.87805556,-176.64611111
ADK,Adak,51.87805556,-176.64611111
ADK,Adak,51.87805556,-176.64583333
ADK,Adak,51.88361111,-176.64250000
ADK,Adak,51.88361111,-176.64250000
ADK,Adak NS,51.88277778,-176.64472222
ADL,Adelaide International,-34.94833333,138.53472222
ADL,Adelaide International,-34.94750000,138.53333333
ADL,Adelaide International,-34.94500000,138.53055556
ADM,Ardmore Municipal,34.30305556,-97.01972222
ADM,Ardmore Municipal,34.30388889,-97.02055556
ADM,Ardmore Municipal,34.30388889,-97.02055556
ADM,Ardmore Municipal,34.30416667,-97.02055556
ADM,Ardmore Municipal,34.30416667,-97.02055556
ADN,Andes Airport,5.66666667,-75.88333333
ADN,Andes Airport,5.69777778,-75.88027778
ADN,Andes Airport,5.69777778,-75.88027778
ADN,Andes Airport,5.69805556,-75.87972222
ADN,Andes Airport,5.69805556,-75.87972222
ADO,Andamooka Airport,-30.43777778,137.13722222
ADQ,Kodiak Airport,57.74972222,-152.49388889
ADQ,Kodiak Airport,57.74972222,-152.49388889
ADQ,Kodiak Airport,57.75000000,-152.49388889
ADQ,Kodiak Airport,57.75000000,-152.49388889
ADS,Addison,32.96833333,-96.83611111
ADS,Addison,32.96861111,-96.83638889
ADT,Ada Municipal,34.80416667,-96.67111111
ADT,Ada Municipal,34.80416667,-96.67111111
ADT,Ada Regional,34.80416667,-96.67111111
ADT,Ada Regional,34.80416667,-96.67111111
ADW,Andrews AFB,38.81083333,-76.86722222
ADW,Andrews AFB,38.81083333,-76.86694444
ADW,Andrews AFB,38.81083333,-76.86694444
ADW,Joint Base Andrews,38.81083333,-76.86694444
ADW,Joint Base Andrews,38.81083333,-76.86694444
ADX,RAF Leuchars,56.37277778,-2.86861111
ADX,RAF Leuchars,56.37277778,-2.86833333
ADX,RAF Leuchars,56.37277778,-2.86833333
ADX,RAF Leuchars,56.37416667,-2.86861111
ADX,RAF Leuchars,56.37416667,-2.86861111
ADZ,Gustavo Rojas Pinilla,12.58361111,-81.71138889
ADZ,Gustavo Rojas Pinilla,12.58361111,-81.71111111
ADZ,San Andres,12.58333333,-81.70000000
ADZ,Sesquicentenario,12.58305556,-81.71166667
AE1,Liwa Airbase,23.65138889,53.82333333
AE2,Sweihan Airbase,24.52444444,54.97611111
AED,Aleneva Airport,58.03333333,-152.90000000
AEG,Aek Godang,1.40000000,99.43055556
AEH,Abeche Airport,13.84694444,20.84361111
AEH,Abeche Airport,13.84750000,20.84333333
AEH,Abeche Airport,13.85138889,20.85083333
AEO,Aioun El Atrouss Airport,16.70916667,-9.63555556
AEO,Aioun El Atrouss Airport,16.71138889,-9.63777778
AEP,Aeroparque Jorge Newbery,-34.55916667,-58.41583333
AEP,Aeroparque Jorge Newbery,-34.55888889,-58.41583333
AER,Adler/Sochi Airport,43.45000000,39.93333333
AER,Adler/Sochi Airport,43.45000000,39.93333333
AES,Alesund,62.56027778,6.11027778
AES,Vigra,62.56027778,6.11027778
AES,Vigra,62.56111111,6.11416667
AES,Vigra,62.56250000,6.10527778
AET,Allakaket Airport,66.55194444,-152.62222222
AET,Allakaket Airport,66.56166667,-152.65833333
AEX,Alexandria International,31.32750000,-92.54861111
AEX,England AFB,31.32416667,-92.54694444
AEY,Akureyri Airport,65.65666667,-18.07194444
AEY,Akureyri Airport,65.65666667,-18.07194444
AEY,Akureyri Airport,65.65694444,-18.07222222
AEY,Akureyri Airport,65.66000000,-18.07277778
AEY,Akureyri Airport,65.66000000,-18.07277778
AF1,Bagram Air Base,34.94611111,69.26500000
AF2,Bastion Airfield,31.85027778,64.22361111
AF2,Bastion Airfield,31.85027778,64.22361111
AF2,Bastion Airfield,31.85694444,64.22083333
AF2,Bastion Airfield,31.85694444,64.22083333
AF2,Bastion Airfield,31.85694444,64.22111111
AF3,Dwyer Airport,31.08972222,64.06638889
AF3,Dwyer Airport,31.09194444,64.06694444
AF3,Dwyer Airport,31.09194444,64.06694444
AF4,Shindand Airport,33.39222222,62.26111111
AFA,San Rafael Airport,-34.58916667,-68.40055556
AFA,San Rafael Airport,-34.58861111,-68.40277778
AFA,San Rafael Airport,-34.58777778,-68.40361111
AFA,San Rafael Airport,-34.58777778,-68.40361111
AFA,San Rafael Airport,-34.58777778,-68.40333333
AFA,San Rafael Airport,-34.58777778,-68.40333333
AFF,USAF Academy Airfield,38.96972222,-104.81277778
AFF,USAF Academy Airfield,38.96972222,-104.81277778
AFF,USAF Academy Airfield,38.96972222,-104.81250000
AFF,USAF Academy Airfield,38.97416667,-104.81777778
AFF,USAF Academy Airfield,38.97416667,-104.81777778
AFK,Nebraska City Municipal,40.60555556,-95.86777778
AFK,Nebraska City Municipal,40.60555556,-95.86777778
AFK,Nebraska City Municipal,40.60638889,-95.86666667
AFK,Nebraska City Municipal,40.60666667,-95.86666667
AFK,Nebraska City Municipal,40.60666667,-95.86666667
AFK,Nebraska City Municipal,40.60694444,-95.86583333
AFO,Afton Municipal,42.70888889,-110.94222222
AFO,Afton Municipal,42.71666667,-110.93333333
AFP,Anson County,35.02055556,-80.07722222
AFP,Anson County,35.02055556,-80.07722222
AFP,Anson County,35.02388889,-80.08138889
AFP,Anson County Jeff Cloud Field,35.02055556,-80.07722222
AFP,Anson County Jeff Cloud Field,35.02055556,-80.07722222
AFU,Al Udeid Air Base,25.11583333,51.31527778
AFW,Fort Worth Alliance,32.98666667,-97.31750000
AFW,Fort Worth Alliance,32.98750000,-97.31888889
AFW,Fort Worth Alliance,32.98777778,-97.31888889
AFW,Fort Worth Alliance,32.98777778,-97.31888889
AFW,Fort Worth Alliance,32.98944444,-97.31944444
AFW,Fort Worth Alliance,32.98944444,-97.31944444
AFW,Fort Worth Alliance,32.99027778,-97.31944444
AFW,Perot Field Fort Worth Alliance,32.99027778,-97.31944444
AFY,Afyon Airport,38.72638889,30.60111111
AFY,Afyon Airport,38.73500000,30.59555556
AGA,Agadir/Inezgane,30.38055556,-9.54583333
AGA,Inezgane,30.38138889,-9.54611111
AGB,Augsburg Airport,48.42444444,10.93222222
AGB,Augsburg Airport,48.42527778,10.93194444
AGB,Muehlhausen,48.42611111,10.93305556
AGC,Allegheny County,40.35444444,-79.93027778
AGC,Allegheny County,40.35444444,-79.93027778
AGC,Allegheny County,40.35444444,-79.92916667
AGC,Allegheny County,40.35444444,-79.92916667
AGC,Allegheny County,40.35472222,-79.93000000
AGC,Allegheny County,40.35472222,-79.93000000
AGF,Agen La Garenne,44.17388889,0.59305556
AGF,Agen La Garenne,44.17388889,0.59305556
AGF,Agen La Garenne,44.17472222,0.59055556
AGF,Agen La Garenne,44.17472222,0.59055556
AGF,La Garenne,44.17361111,0.59861111
AGF,La Garenne,44.17388889,0.59305556
AGF,La Garenne,44.17388889,0.59305556
AGG,Angoram Airport,-4.06583333,144.07388889
AGH,Angelholm,56.29111111,12.85500000
AGH,Angelholm,56.29111111,12.85500000
AGH,Angelholm,56.29138889,12.85500000
AGH,Angelholm,56.29166667,12.85500000
AGH,Angelholm,56.29166667,12.85500000
AGH,Angelholm-Helsingborg,56.29305556,12.86250000
AGH,Angelholm-Helsingborg,56.29583333,12.84972222
AGK,Kagua Airport,-6.40333333,143.84666667
AGL,Wanigela Airport,-9.34027778,149.15527778
AGL,Wanigela Airport,-9.33750000,149.15555556
AGN,Angoon Seaplane Base,57.50388889,-134.58333333
AGP,Malaga Airport,36.67166667,-4.49805556
AGP,Malaga Airport,36.67500000,-4.49916667
AGP,Malaga Airport,36.67500000,-4.49916667
AGP,Malaga Airport,36.67972222,-4.49583333
AGP,Malaga Airport,36.67972222,-4.49583333
AGP,Malaga Airport,36.68000000,-4.49583333
AGP,Malaga Costa del Sol,36.68000000,-4.49583333
AGP,Malaga Costa del Sol,36.68000000,-4.49583333
AGQ,Agrinion Airport,38.60194444,21.35111111
AGQ,Agrinion New,38.60416667,21.35194444
AGR,Agra Airport,27.15777778,77.96083333
AGR,Agra Airport,27.15833333,77.96277778
AGS,Augusta Regional at Bush Field,33.36916667,-81.96444444
AGS,Augusta Regional at Bush Field,33.37000000,-81.96444444
AGS,Bush Field,33.36916667,-81.96444444
AGT,Guarani International,-25.45555556,-54.84361111
AGU,Aguascalientes International,21.70555556,-102.31777778
AGU,Jesus Teran International,21.70083333,-102.31805556
AGU,Jesus Teran International,21.70555556,-102.31777778
AGU,Jesus Teran International,21.70555556,-102.31777778
AGV,Oswaldo Guevara Mujica,9.55222222,-69.23333333
AGV,Oswaldo Guevara Mujica,9.55333333,-69.23750000
AGX,Agatti Island Airport,10.83333333,72.20000000
AHA,Naha AB,26.19194444,127.64777778
AHB,Abha Airport,18.23861111,42.65500000
AHB,Abha Airport,18.24027778,42.65638889
AHB,Abha Airport,18.24027778,42.65638889
AHB,Abha Airport,18.24027778,42.65666667
AHB,Abha Airport,18.24027778,42.65666667
AHD,Ardmore Airport,34.14694444,-97.12277778
AHD,Ardmore Downtown Executive,34.14694444,-97.12277778
AHN,Athens Municipal,33.94833333,-83.32694444
AHN,Athens/Ben Epps,33.94861111,-83.32638889
AHN,Athens/Ben Epps,33.94861111,-83.32638889
AHN,Athens/Ben Epps,33.94861111,-83.32583333
AHN,Athens/Ben Epps,33.94861111,-83.32583333
AHO,Alghero,40.63055556,8.28888889
AHO,Alghero,40.63222222,8.29083333
AHO,Alghero,40.63222222,8.29083333
AHO,Alghero,40.63222222,8.29083333
AHO,Alghero Fertilia,40.63222222,8.29083333
AHO,Alghero Fertilia,40.63222222,8.29083333
AHS,Ahuas Airport,15.47277778,-84.35305556
AHS,Ahuas Airport,15.47277778,-84.35305556
AHS,Ahuas Airport,15.47277778,-84.35138889
AHS,Auas,15.47277778,-84.35305556
AHS,Auas,15.47277778,-84.35305556
AHT,Amchitka,51.37861111,179.25861111
AHU,Cherif El Idrissi International,35.17722222,-3.83944444
AHU,Cherif El Idrissi International,35.17972222,-3.83694444
AIA,Alliance Municipal,42.05166667,-102.80666667
AIA,Alliance Municipal,42.05333333,-102.80388889
AIA,Alliance Municipal,42.05333333,-102.80388889
AIA,Alliance Municipal,42.05333333,-102.80361111
AIA,Alliance Municipal,42.05333333,-102.80361111
AIB,Anita Bay Airport,56.19000000,-132.44583333
AID,Anderson Municipal-Darlington Field,40.10861111,-85.61305556
AID,Anderson Municipal-Darlington Field,40.10861111,-85.61305556
AIK,Aiken Municipal,33.64944444,-81.68500000
AIK,Aiken Municipal,33.65000000,-81.68472222
AIK,Aiken Regional,33.64944444,-81.68500000
AIN,Wainwright Airport,70.63055556,-160.04305556
AIN,Wainwright Airport,70.63805556,-159.99472222
AIO,Atlantic Municipal,41.40388889,-95.04861111
AIT,Aitutaki Airport,-18.85000000,-159.75000000
AIT,Aitutaki Airport,-18.83750000,-159.76111111
AIT,Aitutaki Airport,-18.83722222,-159.76111111
AIT,Aitutaki Airport,-18.83722222,-159.76111111
AIT,Aitutaki Airport,-18.83694444,-159.76111111
AIT,Aitutaki Airport,-18.83694444,-159.76083333
AIT,Aitutaki Airport,-18.83694444,-159.76083333
AIY,Bader Field,39.36000000,-74.46000000
AIY,Bader Field,39.36000000,-74.45722222
AIZ,Lee C Fine Memorial,38.09611111,-92.54944444
AIZ,Lee C Fine Memorial,38.09833333,-92.54722222
AJA,Ajaccio Napoleon Bonaparte,41.92166667,8.80111111
AJA,Ajaccio Napoleon Bonaparte,41.92166667,8.80111111
AJA,Ajaccio Napoleon Bonaparte,41.92388889,8.80250000
AJA,Ajaccio Napoleon Bonaparte,41.92388889,8.80250000
AJA,Ajaccio/Campo Dell Oro,41.92416667,8.80305556
AJA,Napoleon Bonaparte,41.92166667,8.80111111
AJA,Napoleon Bonaparte,41.92166667,8.80111111
AJF,Al Jouf,29.78500000,40.10000000
AJF,Al Jouf,29.80000000,40.06666667
AJJ,Akjoujt Airport,19.72805556,-14.38527778
AJJ,Akjoujt Airport,19.73055556,-14.37444444
AJL,Lengpui,23.84055556,92.61972222
AJN,Ouani,-12.13222222,44.43027778
AJN,Ouani,-12.13222222,44.43027778
AJN,Ouani,-12.13111111,44.43055556
AJN,Ouani,-12.13111111,44.43055556
AJN,Ouani,-12.12638889,44.42972222
AJR,Arvidsjaur Airport,65.58611111,19.28250000
AJR,Arvidsjaur Airport,65.59027778,19.28194444
AJR,Arvidsjaur Airport,65.59166667,19.27750000
AJU,Santa Maria,-10.98388889,-37.07027778
AJU,Santa Maria International,-10.98388889,-37.07027778
AJY,Mano Dayak,16.96083333,8.00916667
AJY,Mano Dayak,16.96611111,8.00000000
AJY,Mano Dayak,16.96611111,8.00000000
AJY,Manu Dayak,16.96416667,7.99305556
AJY,Manu Dayak,16.96611111,8.00000000
AJY,Manu Dayak,16.96611111,8.00027778
AJY,Manu Dayak,16.96611111,8.00027778
AK1,Kelly Creek Airstrip,65.77277778,-165.89027778
AK2,Bear Fish Camp Airport,60.71027778,-151.72111111
AK3,Gold King Creek,64.19805556,-147.92861111
AK4,Squaw Lake Airport,67.58055556,-148.16472222
AK5,Qugruc Airport,70.37027778,-150.42111111
AK6,Gold King 2 Airport,64.07138889,-148.00000000
AK7,Hunter Creek Mine,65.47722222,-150.05083333
AK8,Zips Airport,60.43333333,-151.48333333
AK9,Tolstoi Bay Airport,55.73333333,-132.43333333
AKB,Atka Airport,52.22027778,-174.20694444
AKB,Atka Airport,52.22055556,-174.20611111
AKC,Akron Fulton International,41.03750000,-81.46777778
AKC,Akron Fulton International,41.03750000,-81.46694444
AKF,Kufra,24.17888889,23.31388889
AKF,Kufra,24.17888889,23.31388889
AKF,Kufra,24.17916667,23.31277778
AKF,Kufra,24.20000000,23.33333333
AKH,Prince Sultan AB,24.06805556,47.58194444
AKH,Prince Sultan AB,24.07027778,47.56222222
AKH,Prince Sultan AB,24.07055556,47.56222222
AKH,Prince Sultan Airbase,24.06333333,47.58055556
AKI,Akiak Airport,60.90277778,-161.23055556
AKI,Akiak Airport,60.90555556,-161.22333333
AKJ,Asahikawa Airport,43.67083333,142.44750000
AKJ,Asahikawa Airport,43.67083333,142.45138889
AKJ,Asahikawa Airport,43.67083333,142.45166667
AKK,Akhiok Airport,56.93861111,-154.18250000
AKK,Akhiok Airport,56.94500000,-154.16666667
AKL,Auckland International,-37.01194444,174.78638889
AKL,Auckland International,-37.01111111,174.79916667
AKL,Auckland International,-37.00805556,174.79166667
AKN,King Salmon Airport,58.67638889,-156.64861111
AKN,King Salmon Airport,58.67777778,-156.65166667
AKO,Akron Washington County,40.17555556,-103.22222222
AKO,Colorado Plains Regional,40.17555556,-103.22194444
AKP,Anaktuvuk Pass Airport,68.13361111,-151.74333333
AKP,Anaktuvuk Pass Airport,68.13750000,-151.74000000
AKR,Akure Airport,7.24666667,5.30111111
AKR,Akure Airport,7.25833333,5.30416667
AKS,Auki Airport,-8.70250000,160.68166667
AKS,Auki Airport,-8.70250000,160.68166667
AKS,Auki Airport,-8.69777778,160.68083333
AKS,Auki Gwaunaru University,-8.70250000,160.68166667
AKT,Akrotiri Airport,34.59027778,32.98750000
AKT,Akrotiri Airport,34.59027778,32.98777778
AKX,Aktyubinsk Airport,50.25000000,57.21666667
AKX,Aktyubinsk Airport,50.25000000,57.21666667
AKY,Akyab Airport,20.13027778,92.88027778
AKY,Sittwe Airport,20.13027778,92.88027778
AKY,Sittwe Airport,20.13277778,92.87250000
AKY,Sittwe Airport,20.13333333,92.87055556
AL1,Albertville Regional-Thomas J Brumlik Field,34.22916667,-86.25583333
AL2,Shelby County,33.17694444,-86.78277778
AL2,Shelby County,33.17777778,-86.78333333
AL3,Huntsville Executive Airport Tom Sharp Jr,34.85944444,-86.55750000
AL3,Huntsville Executive Airport Tom Sharp Jr,34.85944444,-86.55750000
AL3,Huntsville Executive Tom Sharp Jr,34.85944444,-86.55750000
AL3,Madison County Executive Tom Sharp Jr Field,34.86138889,-86.55750000
AL3,Madison County Executive/Tom Sharp Jr. Field,34.85944444,-86.55750000
AL3,Madison County Executive/Tom Sharp Jr. Field,34.86138889,-86.55750000
AL4,South Alabama Regional at Bill Benton Field,31.30833333,-86.39222222
AL4,South Alabama Regional at Bill Benton Field,31.30888889,-86.39388889
AL5,Demopolis Municipal,32.46388889,-87.95416667
AL5,Demopolis Municipal,32.46388889,-87.95416667
AL5,Demopolis Regional,32.46388889,-87.95416667
AL5,Demopolis Regional,32.46388889,-87.95416667
AL6,H. L. Sonny Callahan,30.46055556,-87.87694444
AL7,Walker County Bevill Field,33.90194444,-87.31388889
AL8,Scottsboro Municipal Word Field,34.68722222,-86.00500000
AL8,Scottsboro Municipal Word Field,34.68861111,-86.00583333
AL8,Scottsboro Municipal Word Field,34.68861111,-86.00583333
AL9,Merkel Field Sylacauga Municipal,33.17194444,-86.30555556
ALA,Alma-Ata Airport,43.35000000,77.03333333
ALA,Almaty Airport,43.35000000,77.03333333
ALA,Almaty Airport,43.35555556,77.04388889
ALB,Albany International,42.74583333,-73.80527778
ALB,Albany International,42.74916667,-73.80194444
ALC,Alicante Airport,38.28222222,-0.55833333
ALC,Alicante Airport,38.28222222,-0.55805556
ALC,Alicante Airport,38.28222222,-0.55805556
ALC,Alicante Airport,38.28250000,-0.55833333
ALC,Alicante Airport,38.28361111,-0.55861111
ALC,Alicante Elche,38.28222222,-0.55805556
ALC,Alicante Elche,38.28222222,-0.55805556
ALE,Alpine Casparis Municipal,30.38416667,-103.68361111
ALE,Alpine Casparis Municipal,30.38416667,-103.68305556
ALF,Alta Airport,69.97611111,23.37166667
ALF,Alta Airport,69.97611111,23.37166667
ALF,Alta Airport,69.97611111,23.38055556
ALF,Alta Airport,69.97750000,23.36472222
ALF,Alta Airport,69.97750000,23.36472222
ALG,Houari Boumediene,36.69083333,3.21555556
ALG,Houari Boumediene,36.69111111,3.21527778
ALG,Houari Boumediene,36.69111111,3.21527778
ALG,Houari Boumediene,36.69111111,3.21527778
ALG,Houari Boumediene,36.69250000,3.21500000
ALG,Houari Boumediene,36.69250000,3.21500000
ALG,Houari Boumediene,36.69333333,3.21722222
ALH,Albany Airport,-34.94500000,117.80583333
ALH,Albany Airport,-34.94444444,117.80888889
ALH,Albany Airport,-34.94333333,117.80888889
ALI,Alice International,27.74083333,-98.02722222
ALI,Alice International,27.74083333,-98.02694444
ALJ,Alexander Bay Airport,-28.57500000,16.53333333
ALJ,Alexander Bay Airport,-28.57138889,16.53055556
ALJ,Alexander Bay Airport,-28.56722222,16.53638889
ALK,Asela Airport,7.58333333,39.06666667
ALL,Albenga,44.05055556,8.12750000
ALM,Alamogordo White Sands Regional,32.83944444,-105.99111111
ALM,Alamogordo White Sands Regional,32.83944444,-105.99111111
ALM,Alamogordo White Sands Regional,32.83972222,-105.99000000
ALM,Alamogordo White Sands Regional,32.84000000,-105.99055556
ALM,Alamogordo White Sands Regional,32.84000000,-105.99055556
ALM,Alamogordo White Sands Regional,32.84138889,-105.98888889
ALN,St. Louis Regional,38.89000000,-90.04611111
ALN,St. Louis Regional,38.89166667,-90.04833333
ALO,Waterloo Regional,42.55611111,-92.39972222
ALO,Waterloo Regional,42.55694444,-92.40027778
ALO,Waterloo Regional,42.55833333,-92.40111111
ALP,Aleppo International,36.18055556,37.22444444
ALP,Neirab,36.18083333,37.22666667
ALQ,Alegrete Airport,-29.79972222,-55.76333333
ALR,Alexandra Airport,-45.21388889,169.36944444
ALR,Alexandra Airport,-45.21138889,169.37166667
ALS,Alamosa Municipal,37.43666667,-105.86666667
ALS,San Luis Valley Regional/Bergman Field,37.43500000,-105.86777778
ALS,San Luis Valley Regional/Bergman Field,37.43500000,-105.86777778
ALS,San Luis Valley Regional/Bergman Field,37.43500000,-105.86666667
ALS,San Luis Valley Regional/Bergman Field,37.43500000,-105.86666667
ALT,Alenquer Airport,-1.94055556,-54.74027778
ALU,Alula Airport,11.98333333,50.78333333
ALW,Walla Walla Regional,46.09250000,-118.28416667
ALW,Walla Walla Regional,46.09472222,-118.29111111
ALW,Walla Walla Regional,46.09472222,-118.28888889
ALW,Walla Walla Regional,46.09472222,-118.28888889
ALW,Walla Walla Regional,46.09527778,-118.28583333
ALW,Walla Walla Regional,46.09527778,-118.28583333
ALX,Thomas C. Russell Field,32.91472222,-85.96305556
ALX,Thomas C. Russell Field,32.91666667,-85.96666667
ALY,Alexandria International,31.18361111,29.94861111
ALY,Alexandria International,31.18777778,29.94805556
ALZ,Alitak Seaplane Base,56.89583333,-154.24583333
AMA,Amarillo International,35.22722222,-101.72194444
AMA,Rick Husband Amarillo International,35.21944444,-101.70583333
AMA,Rick Husband Amarillo International,35.22722222,-101.72194444
AMD,Ahmedabad Airport,23.06638889,72.62416667
AMD,Ahmedabad Airport,23.07722222,72.63444444
AMD,Ahmedabad International,23.07722222,72.63444444
AMD,Sardar Vallabh Bhai Patel International,23.07722222,72.63444444
AMF,Ama Airport,-4.10166667,141.66972222
AMF,Ama Airport,-4.10055556,141.66972222
AMG,Amboin Airport,-4.60000000,143.50000000
AMH,Arba Minch Airport,6.03611111,37.57694444
AMH,Arba Minch Airport,6.03944444,37.59083333
AMI,Rembiga,-8.56000000,116.09694444
AMI,Selaparang,-8.56083333,116.09472222
AMI,Selaparang,-8.56055556,116.09472222
AMI,Selaparang,-8.56000000,116.09694444
AMK,Animas Air Park,37.20305556,-107.86916667
AMK,Animas Air Park,37.20388889,-107.86861111
AML,Puerto Armuelles Airport,8.26555556,-82.86555556
AML,Puerto Armuelles Airport,8.26750000,-82.86472222
AMM,Amman Airport,31.72250000,35.99333333
AMM,Queen Alia International,31.72250000,35.99333333
AMM,Queen Alia International,31.72333333,35.99416667
AMN,Gratiot Community,43.32083333,-84.68666667
AMN,Gratiot Community,43.32222222,-84.68805556
AMO,Mao Airport,14.14638889,15.31527778
AMO,Mao Airport,14.14722222,15.31444444
AMP,Ampanihy Airport,-24.69944444,44.73277778
AMP,Ampanihy Airport,-24.69944444,44.73305556
AMQ,Pattimura,-3.71027778,128.08972222
AMS,Schiphol,52.30833333,4.76805556
AMS,Schiphol,52.30861111,4.76388889
AMW,Ames Municipal,41.99194444,-93.62194444
AMW,Ames Municipal,41.99416667,-93.61833333
AMX,Ammaroo Station,-21.74000000,135.24000000
AMY,Ambatomainty Airport,-17.68611111,45.62500000
AMY,Ambatomainty Airport,-17.68555556,45.62527778
ANA,Anaheim-Disneyland HP,33.81666667,-117.93333333
ANB,Anniston Metro,33.58805556,-85.85805556
ANB,Anniston Metro,33.58805556,-85.85805556
ANB,Anniston Regional,33.58805556,-85.85805556
ANB,Anniston Regional,33.58805556,-85.85805556
ANB,Anniston/Calhoun County,33.59027778,-85.85583333
ANC,Anchorage International,61.16916667,-149.98527778
ANC,Ted Stevens Anchorage International,61.17416667,-149.99805556
ANC,Ted Stevens Anchorage International,61.17416667,-149.99805556
ANC,Ted Stevens Anchorage International,61.17444444,-149.99638889
ANC,Ted Stevens Anchorage International,61.17444444,-149.99638889
ANC,Ted Stevens Anchorage International,61.17444444,-149.99611111
AND,Anderson Regional,34.49361111,-82.71000000
AND,Anderson Regional,34.49444444,-82.70944444
ANE,Angers Marce,47.56000000,-0.31277778
ANE,Angers Marce,47.56027778,-0.31277778
ANE,Avrille,47.49722222,-0.57277778
ANF,Andres Sabella International,-23.44527778,-70.44527778
ANF,Andres Sabella International,-23.44444444,-70.44500000
ANF,Andres Sabella International,-23.44444444,-70.44500000
ANF,Cerro Moreno International,-23.44444444,-70.44500000
ANF,Cerro Moreno International,-23.44444444,-70.44500000
ANF,Cerro Moreno International,-23.43944444,-70.44277778
ANG,Angouleme Airport,45.72944444,0.21833333
ANG,Angouleme Brie Champniers,45.72944444,0.21833333
ANG,Angouleme Brie Champniers,45.72944444,0.21833333
ANG,Brie Champniers,45.72944444,0.21833333
ANG,Brie-Champniers,45.72944444,0.21833333
ANG,Brie-Champniers,45.72944444,0.21972222
ANI,Aniak Airport,61.58138889,-159.54527778
ANI,Aniak Airport,61.58166667,-159.54305556
ANK,Etimesgut,39.95027778,32.68750000
ANK,Etimesgut,39.95027778,32.68750000
ANK,Etimesgut,39.95166667,32.68805556
ANK,Etimesgut,39.95194444,32.68611111
ANK,Etimesgut,39.95194444,32.68611111
ANM,Antsirabato,-15.00000000,50.32138889
ANM,Antsirabato,-14.99944444,50.32027778
ANN,Annette Island,55.03694444,-131.57055556
ANN,Annette Island,55.04222222,-131.57083333
ANN,Annette Island,55.04222222,-131.57083333
ANN,Annette Island,55.04250000,-131.57222222
ANN,Annette Island,55.04250000,-131.57222222
ANO,Angoche Airport,-16.18250000,39.94500000
ANO,Angoche Airport,-16.18250000,39.94500000
ANO,Angoche Airport,-16.18250000,39.94527778
ANO,Angoche Airport,-16.18250000,39.94527778
ANO,Angoche Airport,-16.17777778,39.93694444
ANP,Lee,38.94277778,-76.56888889
ANP,Lee,38.94277778,-76.56833333
ANR,Antwerp-Brussels North,51.19000000,4.46000000
ANR,Deurne,51.18944444,4.46027778
ANR,Deurne,51.19000000,4.46305556
ANS,Andahuaylas Airport,-13.70888889,-73.35166667
ANS,Andahuaylas Airport,-13.70888889,-73.35138889
ANS,Andahuaylas Airport,-13.70888889,-73.35138889
ANS,Andahuaylas Airport,-13.70861111,-73.35111111
ANU,Antigua,17.10833333,-61.76388889
ANU,V C Bird International,17.13611111,-61.79388889
ANU,V C Bird International,17.13611111,-61.79388889
ANU,V C Bird International,17.13666667,-61.79277778
ANU,V C Bird International,17.13666667,-61.79277778
ANU,V C Bird International,17.13750000,-61.79000000
ANV,Anvik Airport,62.64722222,-160.19000000
ANV,Anvik Airport,62.64777778,-160.18888889
ANX,Andoya,69.29250000,16.14416667
ANX,Andoya,69.29305556,16.14166667
ANX,Andoya,69.29750000,16.13555556
AO1,Dr Antonio Augostiho,-9.52000000,13.49666667
AOH,Lima Allen County,40.70833333,-84.02694444
AOH,Lima Allen County,40.70833333,-84.02666667
AOI,Ancona Falconara,43.61638889,13.36222222
AOI,Ancona Falconara,43.61638889,13.36222222
AOI,Ancona/Falconara,43.61750000,13.36416667
AOI,Falconara,43.61638889,13.36222222
AOI,Falconara,43.61638889,13.36222222
AOJ,Aomori Airport,40.73333333,140.68861111
AOJ,Aomori Airport,40.73472222,140.68972222
AOK,Karpathos Airport,35.42083333,27.14555556
AOK,Karpathos Airport,35.42083333,27.14555556
AOK,Karpathos Airport,35.42111111,27.14583333
AOK,Karpathos Airport,35.42111111,27.14583333
AOK,Karpathos Airport,35.42388889,27.14722222
AOL,Paso de Los Libres Airport,-29.69000000,-57.14861111
AOL,Paso de Los Libres Airport,-29.68944444,-57.15194444
AOO,Altoona-Blair County,40.29638889,-78.32000000
AOO,Altoona-Blair County,40.29722222,-78.32000000
AOR,Sultan Abdul Halim,6.18972222,100.39833333
AOR,Sultan Abdul Halim,6.19111111,100.40388889
AOS,Amook Bay Airport,57.45472222,-153.81305556
APA,Arapahoe County,39.57277778,-104.84777778
APA,Centennial,39.57000000,-104.84944444
APA,Centennial,39.57000000,-104.84916667
APA,Centennial,39.57027778,-104.84944444
APA,Centennial,39.57277778,-104.84777778
APB,Apolo Airport,-14.74027778,-68.41111111
APB,Apolo Airport,-14.74027778,-68.41111111
APB,Apolo Airport,-14.74000000,-68.40750000
APB,Apolo Airport,-14.73888889,-68.41138889
APB,Apolo Airport,-14.73888889,-68.41111111
APB,Apolo Airport,-14.73888889,-68.41111111
APB,Apolo Airport,-14.73666667,-68.41305556
APC,Napa County,38.21222222,-122.28000000
APC,Napa County,38.21305556,-122.28055556
APC,Napa County,38.21305556,-122.28055556
APC,Napa County,38.21361111,-122.28027778
APE,San Juan Aposento Airport,-15.35000000,-75.16666667
APF,Naples Municipal,26.15222222,-81.77583333
APF,Naples Municipal,26.15222222,-81.77583333
APF,Naples Municipal,26.15250000,-81.77555556
APF,Naples Municipal,26.15250000,-81.77555556
APF,Naples Municipal,26.15277778,-81.77527778
APG,Phillips AAF,39.46555556,-76.16833333
APG,Phillips AAF,39.46611111,-76.16972222
APG,Phillips AAF,39.46611111,-76.16888889
APH,A P Hill AAF,38.06861111,-77.31888889
APH,A P Hill AAF,38.06888889,-77.31833333
APH,Mary Walker Lz,38.06861111,-77.31888889
API,Capt Luis F Gomez Nino,4.07611111,-73.56277778
API,Gomez Nino Apiay AB,4.07611111,-73.56277778
APK,Apataki Airport,-15.57527778,-146.41305556
APK,Apataki Airport,-15.56666667,-146.41666667
APL,Nampula Airport,-15.10555556,39.28166667
APL,Nampula Airport,-15.10166667,39.28722222
APN,Alpena County Regional,45.07805556,-83.56027778
APN,Phelps/Collins,45.08166667,-83.55583333
APO,Apartado Airport,7.03333333,-77.20000000
APR,April River Airport,-4.67638889,142.54000000
APR,April River Airport,-4.67361111,142.53777778
APT,Marion County Brown Field,35.06055556,-85.58527778
APV,Apple Valley Airport,34.52638889,-117.21277778
APV,Apple Valley Airport,34.57527778,-117.18611111
APV,Calf Apple Valley,34.52638889,-117.21277778
APW,Faleolo,-13.83333333,-172.00000000
APW,Faleolo International,-13.83000000,-172.00833333
APW,Faleolo International,-13.82833333,-172.01194444
AQ1,McMurdo Station Phoenix Field,-77.95694444,166.74944444
AQ1,McMurdo Station Phoenix Field,-77.95666667,166.75583333
AQ1,McMurdo Station Phoenix Field,-77.95666667,166.75777778
AQ1,McMurdo Station Phoenix Field,-77.95666667,166.75972222
AQ2,Mario Zucchelli,-74.68333333,164.11666667
AQI,Al Qaisumah,28.33527778,46.12500000
AQI,Al Qaisumah International,28.33611111,46.12694444
AQI,Hafr Al Batin,28.33527778,46.12500000
AQI,Hafr Al Batin,28.33527778,46.12500000
AQI,Hafr Al Batin,28.33527778,46.12500000
AQI,Hafr Al Batin,28.33611111,46.12694444
AQI,Qaisumah Airport,28.33527778,46.12500000
AQI,Qaisumah Airport,28.33527778,46.12500000
AQJ,Aqaba King Hussein International,29.61111111,35.01777778
AQJ,Aqaba King Hussein International,29.61111111,35.01777778
AQJ,King Hussein International,29.61111111,35.01777778
AQJ,King Hussein International,29.61111111,35.01777778
AQJ,King Hussein International,29.61250000,35.01944444
AQP,Rodriguez Ballon International,-16.34111111,-71.58305556
AQP,Rodriguez Ballon International,-16.34111111,-71.58305556
AQP,Rodriguez Ballon International,-16.34055556,-71.57083333
AQP,Rodriguez Ballon International,-16.34055556,-71.57083333
AQP,Rodriguez Ballon International,-16.33777778,-71.55500000
AQS,Saqani Airport,-16.75000000,179.35000000
AQY,Girdwood Airport,60.96611111,-149.12583333
AQY,Girdwood Airport,60.96611111,-149.12583333
AQY,Girdwood Airport,60.96666667,-149.12361111
AQY,Girdwood Airport,60.96888889,-149.11944444
AQY,Girdwood Airport,60.96888889,-149.11944444
AR1,Russellville Regional,35.25916667,-93.09333333
AR1,Russellville Regional,35.25916667,-93.09250000
AR1,Russellville Regional,35.26472222,-93.09388889
AR2,Dennis F Cantrell Field,35.08083333,-92.42500000
AR2,Dennis F Cantrell Field,35.08083333,-92.42500000
AR2,Dennis F Cantrell Field,35.08111111,-92.42444444
AR2,Dennis F Cantrell Field,35.08111111,-92.42444444
AR3,Bentonville Municipal Louise M Thaden Field,36.34527778,-94.21944444
AR3,Bentonville Municipal Louise M Thaden Field,36.34527778,-94.21944444
AR3,Bentonville Municipal Louise M Thaden Field,36.34583333,-94.21944444
AR4,Delta Regional,35.11999999,-90.82638889
ARA,Acadiana Reg,30.03777778,-91.88388889
ARA,Acadiana Regional,30.03750000,-91.88388889
ARA,Acadiana Regional,30.03777778,-91.88388889
ARB,Ann Arbor Municipal,42.22277778,-83.74444444
ARB,Ann Arbor Municipal,42.22305556,-83.74583333
ARB,Ann Arbor Municipal,42.22305556,-83.74555556
ARC,Arctic Village Airport,68.11472222,-145.57944444
ARC,Wien Arctic Village,68.13750000,-145.52444444
ARD,Arcadia Municipal,-8.25000000,124.75000000
ARE,Antonio/Nery/Juarbe Pol,18.45000000,-66.67527778
ARE,Antonio/Nery/Juarbe Pol,18.45000000,-66.67527778
ARE,Antonio/Nery/Juarbe Pol,18.45027778,-66.67583333
ARE,Antonio/Nery/Juarbe Pol,18.45083333,-66.67555556
ARE,Antonio/Nery/Juarbe Pol,18.45083333,-66.67555556
ARE,Arecibo Airport,18.45000000,-66.67583333
ARG,Walnut Ridge Regional,36.12472222,-90.92500000
ARG,Walnut Ridge Regional,36.12500000,-90.92638889
ARH,Arkhangelsk Airport,64.56666667,40.53333333
ARH,Arkhangelsk Airport,64.60027778,40.71666667
ARH,Talagi,64.56666667,40.53333333
ARH,Talagi,64.60027778,40.71666667
ARH,Talagi,64.60027778,40.71666667
ARH,Talagi,64.60027778,40.73333333
ARI,Chacalluta,-18.34861111,-70.33861111
ARI,Chacalluta,-18.33305556,-70.33805556
ARK,Arusha Airport,-3.36666667,36.62555556
ARK,Arusha Airport,-3.36416667,36.62472222
ARM,Armidale Airport,-30.52888889,151.61694444
ARM,Armidale Airport,-30.52833333,151.62333333
ARM,Armidale Airport,-30.52805556,151.61722222
ARN,Arlanda,59.65194444,17.91861111
ARN,Arlanda,59.66194444,17.93388889
ARP,Aragip Airport,-9.87333333,149.48305556
ARP,Aragip Airport,-9.87083333,149.48416667
ARP,Aragip Airport,-9.87055556,149.48361111
ARQ,Arauquita Airport,7.02111111,-71.38888889
ARQ,Arauquita Airport,7.02111111,-71.38888889
ARQ,Troncal,7.02111111,-71.38888889
ARQ,Troncal,7.02111111,-71.38888889
ARS,Aragarcas Airport,-15.90000000,-52.23333333
ARS,Aragarcas Airport,-15.89944444,-52.24111111
ART,Watertown International,43.99083333,-76.02138889
ART,Watertown International,43.99194444,-76.02055556
ART,Watertown International,43.99194444,-76.02055556
ART,Watertown International,43.99194444,-76.01944444
ART,Watertown International,43.99194444,-76.01944444
ARU,Aracatuba Airport,-21.14361111,-50.42611111
ARU,Aracatuba Airport,-21.14138889,-50.42472222
ARU,Aracatuba Airport,-21.14138889,-50.42472222
ARU,Aracatuba Airport,-21.14138889,-50.42444444
ARU,Aracatuba Airport,-21.14138889,-50.42444444
ARV,Lakeland/Noble F. Lee Memorial Field,45.92805556,-89.73083333
ARW,Arad Airport,46.17666667,21.26194444
ARW,Arad Airport,46.17666667,21.26194444
ARW,Arad Airport,46.18333333,21.26666667
ARW,Arad International,46.17666667,21.26194444
ARW,Arad International,46.17666667,21.26194444
ARX,Asbury Park/Monmouth County,40.18333333,-74.11666667
ARY,Ararat Airport,-37.31194444,142.99055556
ARY,Ararat Airport,-37.30944444,142.98861111
ARZ,N'zeto Airport,-7.25944444,12.86277778
ARZ,N'zeto Airport,-7.25888889,12.86250000
ARZ,N'zeto North,-7.22250000,12.86861111
ASA,Assab International,13.07000000,42.63833333
ASA,Assab International,13.07166667,42.64500000
ASA,Assab International,13.07333333,42.63694444
ASB,Ashgabat Airport,37.98166667,58.36083333
ASB,Ashgabat Airport,37.98694444,58.36111111
ASB,Ashkhabad Airport,37.98166667,58.36083333
ASC,Ascension Airport,-15.91666667,-63.15000000
ASD,Andros Town Airport,24.69777778,-77.79611111
ASD,Andros Town International,24.69805556,-77.79555556
ASD,Fresh Creek,24.69805556,-77.79555556
ASE,Aspen Pitkin County Sardy Field,39.22194444,-106.86833333
ASE,Aspen Pitkin County Sardy Field,39.22194444,-106.86833333
ASE,Aspen Pitkin County Sardy Field,39.22305556,-106.86888889
ASE,Aspen Pitkin County Sardy Field,39.22305556,-106.86888889
ASE,Aspen Pitkin County Sardy Field,39.22416667,-106.86888889
ASF,Astrakhan Airport,46.28277778,48.01083333
ASF,Narimanova,46.28277778,48.01083333
ASG,Ashburton Airport,-43.90500000,171.79666667
ASG,Ashburton Airport,-43.90277778,171.79972222
ASH,Boire Field,42.77888889,-71.50944444
ASH,Boire Field,42.78166667,-71.51472222
ASH,Boire Field,42.78166667,-71.51472222
ASH,Boire Field,42.78250000,-71.51416667
ASH,Boire Field,42.78250000,-71.51416667
ASH,Nashua Airport,42.77888889,-71.50944444
ASI,Ascension Aux Af,-7.97027778,-14.39361111
ASI,Ascension Aux Af,-7.96972222,-14.39361111
ASJ,Amami,28.41694444,129.69750000
ASJ,Amami,28.43055556,129.71250000
ASK,Yamoussoukro Airport,6.90305556,-5.36611111
ASK,Yamoussoukro Airport,6.90555556,-5.36416667
ASL,Harrison County,32.52055556,-94.30777778
ASL,Harrison County,32.52166667,-94.30805556
ASM,Asmara International,15.28777778,38.90805556
ASM,Asmara International,15.29194444,38.91111111
ASM,Asmara International,15.29333333,38.90888889
ASM,Yohannes IV,15.29111111,38.91027778
ASN,Talladega Municipal,33.56944444,-86.05111111
ASN,Talladega Municipal,33.56972222,-86.05083333
ASO,Asosa Airport,10.02055556,34.58222222
ASO,Asosa Airport,10.02055556,34.59888889
ASO,Asosa Airport,10.02055556,34.59888889
ASO,Asosa Airport,10.04722222,34.53666667
ASO,Asosa Hidase,10.02055556,34.58222222
ASO,Asosa Hidase,10.02055556,34.58222222
ASP,Alice Springs Airport,-23.80833333,133.90083333
ASP,Alice Springs Airport,-23.80833333,133.90083333
ASP,Alice Springs Airport,-23.80444444,133.89527778
ASP,Alice Springs Airport,-23.80444444,133.89527778
ASP,Alice Springs Airport,-23.80333333,133.88416667
ASQ,Austin Airport,39.46805556,-117.19750000
ASQ,Austin Airport,39.46805556,-117.19750000
ASQ,Austin Airport,39.46805556,-117.19527778
ASQ,Austin Airport,39.46805556,-117.19527778
ASQ,Austin Airport,39.46888889,-117.19611111
ASR,Erkilet,38.77027778,35.49555556
ASR,Erkilet,38.77027778,35.49555556
ASR,Kayseri Airport,38.70416667,35.50972222
ASR,Kayseri Airport,38.77027778,35.49555556
ASR,Kayseri Airport,38.77027778,35.49555556
AST,Astoria Regional,46.15805556,-123.87861111
AST,Astoria Regional,46.15972222,-123.88000000
ASU,Silvio Pettirossi International,-25.24111111,-57.51694444
ASU,Silvio Pettirossi International,-25.23972222,-57.51916667
ASU,Silvio Pettirossi International,-25.23916667,-57.51916667
ASW,Aswan International,23.96444444,32.82000000
ASW,Aswan International,23.96500000,32.82166667
ASX,John F Kennedy Memorial,46.54861111,-90.91888889
ASX,John F Kennedy Memorial,46.54861111,-90.91861111
ASY,Ashley Municipal,46.02305556,-99.35277778
ASY,Ashley Municipal,46.02305556,-99.35277778
ASY,Ashley Municipal,46.02388889,-99.35277778
ASY,Ashley Municipal,46.02388889,-99.35250000
ASY,Ashley Municipal,46.02388889,-99.35250000
ASY,Ashley Municipal,46.02472222,-99.35166667
ATA,Anta Huaraz,-9.34722222,-77.60000000
ATB,Atbara Airport,17.70972222,34.05722222
ATC,Arthur's Town Airport,24.62944444,-75.67388889
ATE,Antlers Municipal,34.19250000,-95.65000000
ATE,Antlers Municipal,34.19250000,-95.64972222
ATE,Antlers Municipal,34.19277778,-95.64972222
ATE,Antlers Municipal,34.19361111,-95.65000000
ATH,Eleftherios Venizelos International,37.93666667,23.94444444
ATH,Hellinikon,37.89583333,23.72888889
ATI,Artigas International,-30.40083333,-56.50777778
ATI,Artigas International,-30.40000000,-56.50833333
ATK,Atqasuk Edward Burnell Sr. Memorial,70.46722222,-157.43583333
ATK,Atqasuk Edward Burnell Sr. Memorial,70.46722222,-157.43583333
ATK,Atqasuk Edward Burnell Sr. Memorial,70.46722222,-157.43555556
ATK,Atqasuk Edward Burnell Sr. Memorial,70.46722222,-157.43555556
ATK,Atqasuk Edward Burnell Sr. Memorial,70.46750000,-157.45194444
ATL,Atlanta Municipal,33.64083333,-84.42722222
ATL,Hartsfield-Jackson Atlanta International,33.63666667,-84.42805556
ATL,Hartsfield-Jackson Atlanta International,33.63666667,-84.42805556
ATL,Hartsfield-Jackson Atlanta International,33.63666667,-84.42777778
ATL,Hartsfield-Jackson Atlanta International,33.63666667,-84.42777778
ATL,Hartsfield-Jackson Atlanta International,33.64083333,-84.42722222
ATL,William B. Hartsfield Atlanta International,33.64083333,-84.42722222
ATM,Altamira Airport,-3.25388889,-52.25388889
ATM,Altamira Airport,-3.25388889,-52.25388889
ATM,Altamira Airport,-3.25333333,-52.25305556
ATM,Altamira Airport,-3.25305556,-52.25388889
ATM,Altamira Airport,-3.25305556,-52.25388889
ATN,Namatanai Airport,-3.67138889,152.43638889
ATN,Namatanai Airport,-3.66972222,152.43805556
ATN,Namatanai Airport,-3.66972222,152.43805556
ATN,Namatanai Airport,-3.66944444,152.43805556
ATN,Namatanai Airport,-3.66944444,152.43805556
ATO,Ohio University,39.21194444,-82.22916667
ATO,Ohio University,39.21194444,-82.22916667
ATO,Ohio University Snyder Field,39.21083333,-82.23166667
ATO,Ohio University Snyder Field,39.21194444,-82.22916667
ATO,Ohio University Snyder Field,39.21194444,-82.22916667
ATP,Aitape Airport,-3.14250000,142.34666667
ATQ,Amritsar Airport,31.70694444,74.79722222
ATQ,Amritsar Airport,31.71138889,74.79638889
ATQ,Amritsar Airport,31.71138889,74.79638889
ATQ,Amritsar International,31.71138889,74.79638889
ATQ,Amritsar International,31.71138889,74.79638889
ATR,Atar Airport,20.49944444,-13.04638889
ATR,Atar Airport,20.50666667,-13.04305556
ATS,Artesia Municipal,32.84833333,-104.46694444
ATS,Artesia Municipal,32.85166667,-104.46722222
ATS,Artesia Municipal,32.85194444,-104.46750000
ATS,Artesia Municipal,32.85194444,-104.46750000
ATS,Artesia Municipal,32.85250000,-104.46777778
ATS,Artesia Municipal,32.85250000,-104.46777778
ATT,Atmautluak Airport,60.86722222,-162.27333333
ATT,Atmautluak Airport,60.86722222,-162.27333333
ATT,Atmautluak Airport,60.86750000,-162.27083333
ATT,Atmautluak Airport,60.86777778,-162.27416667
ATT,Atmautluak Airport,60.86777778,-162.27416667
ATU,Casco Cove,52.82583333,173.17277778
ATU,Casco Cove CGS,52.83250000,173.17555556
ATV,Ati Airport,13.23972222,18.31333333
ATV,Ati Airport,13.23972222,18.31333333
ATV,Ati Airport,13.23972222,18.31555556
ATV,Ati Airport,13.23972222,18.31555556
ATV,Ati Airport,13.24222222,18.30750000
ATW,Appleton International,44.25805556,-88.51916667
ATW,Appleton International,44.25805556,-88.51916667
ATW,Outagamie County Regional,44.25777778,-88.52000000
ATW,Outagamie County Regional,44.25805556,-88.51916667
ATW,Outagamie County Regional,44.25805556,-88.51916667
ATY,Watertown Municipal,44.90888889,-97.15416667
ATY,Watertown Regional,44.90888889,-97.15416667
ATY,Watertown Regional,44.91388889,-97.15472222
ATZ,Assiut Airport,27.04638889,31.07861111
AU1,Scherger,-12.62388889,142.08722222
AU1,Scherger,-12.62277778,142.08805556
AUA,Reina Beatrix International,12.50138889,-70.01555556
AUA,Reina Beatrix International,12.50222222,-70.01388889
AUA,Reina Beatrix International,12.50222222,-70.01388889
AUC,Santiago Perez,7.06888889,-70.73694444
AUC,Santiago Perez,7.07027778,-70.74055556
AUD,Augustus Downs Airport,-18.51555556,139.87861111
AUD,Augustus Downs Airport,-18.50694444,139.88166667
AUG,Augusta,44.31805556,-69.79666667
AUG,Augusta State,44.32055556,-69.79722222
AUH,Abu Dhabi International,24.43305556,54.64888889
AUH,Abu Dhabi International,24.44333333,54.65277778
AUI,Aua Island Airport,-1.46222222,143.06444444
AUI,Aua Island Airport,-1.46166667,143.06472222
AUK,Alakanuk Airport,62.68000000,-164.66000000
AUK,Alakanuk Airport,62.68000000,-164.66000000
AUK,Alakanuk Airport,62.68305556,-164.72222222
AUK,Alakanuk Airport,62.68305556,-164.72222222
AUK,Alakanuk New,62.68916667,-164.61083333
AUM,Austin Municipal,43.66277778,-92.93305556
AUM,Austin Municipal,43.66444444,-92.93388889
AUN,Auburn Municipal,38.95277778,-121.08194444
AUN,Auburn Municipal,38.95472222,-121.08166667
AUO,Auburn University Regional,32.61500000,-85.43388889
AUO,Auburn-Opelika,32.61527778,-85.43194444
AUP,Aguan Papua N.G.,-9.91666667,149.33333333
AUQ,Hiva Oa/Atuona,-9.76888889,-139.01138889
AUQ,Hiva Oa/Atuona,-9.76888889,-139.01138889
AUQ,Hiva Oa/Atuona,-9.76666667,-139.01666667
AUQ,Hiva Oa/Atuona,-9.76611111,-139.01000000
AUQ,Hiva Oa/Atuona,-9.76583333,-139.00972222
AUQ,Hiva Oa/Atuona,-9.76583333,-139.00972222
AUR,Aurillac Airport,44.89111111,2.42194444
AUR,Aurillac Airport,44.89750000,2.41805556
AUS,Austin - Bergstrom International,30.19444444,-97.67000000
AUS,Robert Mueller Municipal,30.29805556,-97.70138889
AUW,Wausau Downtown,44.92333333,-89.62305556
AUW,Wausau Downtown,44.92638889,-89.62694444
AUW,Wausau Downtown,44.92638889,-89.62694444
AUW,Wausau Downtown,44.92638889,-89.62694444
AUW,Wausau Downtown,44.92638889,-89.62666667
AUW,Wausau Downtown,44.92638889,-89.62666667
AUX,Araguaina Airport,-7.22777778,-48.24055556
AUX,Araguaina Airport,-7.20000000,-48.20000000
AUY,Anatom,-20.25333333,169.76138889
AUY,Aneityum Airport,-20.24944444,169.77083333
AUY,Aneityum Airport,-20.24944444,169.77083333
AUY,Aneityum Airport,-20.24916667,169.77083333
AUY,Aneityum Airport,-20.24916667,169.77083333
AUZ,Aurora Municipal,41.77083333,-88.47277778
AUZ,Aurora Municipal,41.77194444,-88.47555556
AVB,Aviano AB,46.03000000,12.59888889
AVB,Aviano AB,46.03000000,12.59888889
AVB,Aviano AB,46.03055556,12.59638889
AVB,Aviano AB,46.03111111,12.59638889
AVB,Aviano AB,46.03111111,12.59638889
AVB,Aviano AB,46.03111111,12.59638889
AVB,Aviano AFB,46.03194444,12.59722222
AVI,Maximo Gomez,22.02638889,-78.79055556
AVI,Maximo Gomez,22.02694444,-78.78972222
AVL,Asheville Regional,35.43444444,-82.54277778
AVL,Asheville Regional,35.43444444,-82.54277778
AVL,Asheville Regional,35.43500000,-82.54111111
AVL,Asheville Regional,35.43611111,-82.54194444
AVL,Asheville Regional,35.43611111,-82.54194444
AVL,Asheville Regional,35.43611111,-82.54194444
AVN,Avignon Caumont,43.90666667,4.90194444
AVN,Avignon Caumont,43.90666667,4.90194444
AVN,Avignon Caumont,43.90722222,4.90194444
AVN,Caumont,43.90666667,4.90194444
AVN,Caumont,43.90722222,4.90194444
AVN,Caumont,43.90722222,4.90194444
AVO,Avon Park Executive,27.59138889,-81.52888889
AVO,Avon Park Municipal,27.59250000,-81.52694444
AVP,Wilkes Barre Scranton International,41.33833333,-75.72333333
AVP,Wilkes Barre Scranton International,41.33833333,-75.72333333
AVP,Wilkes Barre Scranton International,41.33861111,-75.72333333
AVP,Wilkes Barre Scranton International,41.33861111,-75.72333333
AVP,Wilkes Barre Scranton International,41.33916667,-75.72583333
AVV,Avalon Airport,-38.04083333,144.46722222
AVV,Avalon Airport,-38.04083333,144.46805556
AVV,Avalon Airport,-38.03944444,144.46944444
AVW,Avra Valley,32.40916667,-111.21805556
AVW,Marana Regional,32.40944444,-111.21833333
AVX,Catalina,33.40500000,-118.41583333
AWA,Awasa Airport,7.06111111,38.48750000
AWA,Lake Awasa,7.06666667,38.49055556
AWK,Wake Island Airfield,19.28000000,166.64027778
AWK,Wake Island Airfield,19.28000000,166.64027778
AWK,Wake Island Airfield,19.28250000,166.63666667
AWM,West Memphis Municipal,35.13500000,-90.23444444
AWR,Awar Airport,-4.12416667,144.87027778
AWX,Andrews County,32.32944444,-102.53027778
AWX,Andrews County,32.33083333,-102.52972222
AWX,Andrews County,32.33083333,-102.52972222
AWX,Andrews County,32.33111111,-102.52944444
AWX,Andrews County,32.33111111,-102.52944444
AWZ,Ahwaz Airport,31.33750000,48.76194444
AWZ,Ahwaz Airport,31.33777778,48.75972222
AXA,Clayton J Lloyd,18.20472222,-63.05388889
AXA,Clayton J Lloyd International,18.20472222,-63.05388889
AXA,Clayton J. Lloyd,18.20472222,-63.05388889
AXA,Clayton J. Lloyd International,18.20472222,-63.05388889
AXA,Clayton J. Lloyd International,18.21027778,-63.05750000
AXA,Wallblake,18.21027778,-63.05750000
AXB,Maxson Airfield,44.31666667,-75.89972222
AXC,Aramac Airport,-22.96666667,145.24166667
AXC,Aramac Airport,-22.96666667,145.24166667
AXC,Aramac Airport,-22.96333333,145.25166667
AXC,Aramac Airport,-22.96333333,145.25166667
AXC,Aramac Airport,-22.96333333,145.25333333
AXC,Aramac Airport,-22.95805556,145.24250000
AXD,Dimokritos,40.85555556,25.95000000
AXD,Dimokritos,40.85583333,25.95611111
AXD,Dimokritos,40.85583333,25.95611111
AXD,Dimokritos,40.85583333,25.95638889
AXD,Dimokritos,40.85583333,25.95638889
AXM,El Eden,4.45083333,-75.76666667
AXM,El Eden,4.45083333,-75.76666667
AXM,El Eden,4.45166667,-75.76611111
AXM,El Eden,4.45166667,-75.76611111
AXM,El Eden,4.45638889,-75.76805556
AXN,Chandler Field,45.86638889,-95.39472222
AXN,Chandler Field,45.86722222,-95.39416667
AXP,Spring Point Airport,22.44194444,-73.97083333
AXP,Spring Point Airport,22.44194444,-73.97083333
AXP,Spring Point Airport,22.44194444,-73.97055556
AXP,Spring Point Airport,22.44194444,-73.97055556
AXP,Spring Point Airport,22.44194444,-73.97055556
AXS,Altus Municipal,34.69805556,-99.33805556
AXS,Altus/Quartz Mountain Regional,34.69888889,-99.33833333
AXT,Akita Airport,39.61555556,140.21861111
AXU,Axum Airport,14.12083333,38.71666667
AXU,Axum Airport,14.14694444,38.77138889
AXU,Axum Airport,14.14694444,38.77138889
AXU,Axum Airport,14.14694444,38.77250000
AXU,Axum Atse Yohannes IV,14.14694444,38.77250000
AXU,Axum Atse Yohannes IV,14.14694444,38.77250000
AXV,Neil Armstrong,40.49333333,-84.29888889
AXV,Neil Armstrong,40.49361111,-84.29805556
AXX,Angel Fire,36.42055556,-105.28944444
AXX,Angel Fire,36.42194444,-105.29000000
AYL,Anthony Lagoon Airport,-18.01666667,135.55000000
AYP,Ayacucho Airport,-13.13333333,-74.20000000
AYP,Coronel FAP Alfredo Mendivil Duarte,-13.15472222,-74.20444444
AYQ,Ayers Rock Connellan,-25.18611111,130.97555556
AYQ,Ayers Rock Connellan,-25.18555556,130.97666667
AYR,Ayr Airport,-19.59666667,147.32444444
AYR,Ayr Airport,-19.59666667,147.32500000
AYR,Ayr Airport,-19.59666667,147.32500000
AYR,Ayr Airport,-19.59305556,147.32416667
AYR,Ayr Airport,-19.58444444,147.32916667
AYR,Ayr Airport,-19.58444444,147.32916667
AYS,Waycross Ga,31.24916667,-82.39555556
AYS,Waycross-Ware County,31.24833333,-82.39527778
AYS,Waycross-Ware County,31.24861111,-82.39666667
AYT,Antalya Airport,36.89861111,30.80055556
AYT,Antalya Airport,36.89972222,30.79750000
AYT,Antalya Airport,36.90555556,30.79055556
AYW,Ayawasi Airport,-1.15972222,132.46333333
AYW,Ayawasi Airport,-1.15972222,132.46416667
AYW,Ayawasi Airport,-1.14166667,132.47833333
AZ1,Valle,35.65055556,-112.14805556
AZ1,Valle,35.65083333,-112.14805556
AZ2,H. A. Clark Memorial Field,35.30222222,-112.19416667
AZ2,H. A. Clark Memorial Field,35.30555556,-112.19444444
AZ3,Glendale Municipal,33.52694444,-112.29527778
AZ3,Glendale Municipal,33.52722222,-112.29527778
AZ4,Sheepy Hollow Ranch,33.78750000,-113.64250000
AZ5,Springerville Municipal,34.11805556,-109.31083333
AZ5,Springerville Municipal,34.12944444,-109.31083333
AZ5,Springerville Municipal,34.12944444,-109.31083333
AZ6,Gila Bend Municipal,32.96027778,-112.67361111
AZ7,Colorado City Municipal,36.96000000,-113.01388889
AZ8,Ruby Star Airpark,31.90916667,-111.12083333
AZ9,Coolidge Municipal,32.93611111,-111.42638889
AZA,Phoenix - Mesa Gateway,33.30777778,-111.65555556
AZD,Shahid Sadooghi,31.90500000,54.27638889
AZD,Shahid Sadooghi,31.90500000,54.27638889
AZD,Shahid Sadooghi International,31.90500000,54.27638889
AZD,Yazd Airport,31.89777778,54.28166667
AZD,Yazd Shahid Sadooghi,31.90500000,54.27638889
AZD,Yazd Shahid Sadooghi,31.90500000,54.27638889
AZG,Pablo L. Sidar,19.09361111,-102.39361111
AZI,Al Bateen Executive,24.42833333,54.45805556
AZO,Kalamazoo/Battle Creek International,42.23444444,-85.55166667
AZO,Kalamazoo/Battle Creek International,42.23638889,-85.55361111
AZR,Touat Cheikh Sidi Mohamed Belkebir,27.83777778,-0.18638889
AZS,El Catey International,19.26944444,-69.73694444
AZS,Samana El Catey International,19.26666667,-69.75000000
B19,Biddeford Municipal,43.46416667,-70.47250000
B1C,Blackfish Lodge,50.75194444,-126.58722222
B21,Sugarloaf Regional,45.08527778,-70.21638889
B21,Sugarloaf Regional,45.08527778,-70.21638889
B21,Sugarloaf Regional,45.08527778,-70.21638889
B21,Sugarloaf Regional,45.08555556,-70.21638889
B21,Sugarloaf Regional,45.08555556,-70.21638889
B21,Sugarloaf Regional,45.08611111,-70.21611111
B2C,Blind Channel Water Aerodrome,50.40194444,-125.41916667
B3C,Minstrel Island Water Aerodrome,50.61888889,-126.31777778
B4C,Simoom Sound Water Aerodrome,50.75194444,-126.50111111
BAA,Bialla Airport,-5.33055556,151.00805556
BAA,Bialla Airport,-5.31666667,151.03333333
BAB,Beale AFB,39.13611111,-121.43666667
BAB,Beale AFB,39.13611111,-121.43555556
BAC,Barranca de Upia Airport,4.56916667,-72.96722222
BAD,Barksdale AFB,32.50166667,-93.66250000
BAD,Barksdale AFB,32.50194444,-93.66277778
BAD,Barksdale AFB,32.50194444,-93.66277778
BAD,Barksdale AFB,32.50194444,-93.66250000
BAD,Barksdale AFB,32.50194444,-93.66250000
BAE,Barcelonnette Airport,44.38333333,6.63333333
BAF,Barnes Municipal,42.15805556,-72.71583333
BAF,Barnes Municipal,42.15805556,-72.71583333
BAF,Barnes Municipal,42.16000000,-72.71638889
BAF,Westfield Barnes Regional,42.15805556,-72.71583333
BAF,Westfield Barnes Regional,42.15805556,-72.71583333
BAG,Baguio Airport,16.37500000,120.61888889
BAG,Baguio Airport,16.37500000,120.61888889
BAG,Baguio Airport,16.37500000,120.61972222
BAG,Baguio Airport,16.37500000,120.61972222
BAG,Baguio Airport,16.37666667,120.61777778
BAH,Bahrain International,26.26777778,50.63694444
BAH,Bahrain International,26.26805556,50.63694444
BAH,Bahrain International,26.26805556,50.63694444
BAH,Bahrain International,26.27083333,50.63361111
BAH,Bahrain International,26.27083333,50.63361111
BAH,Bahrain International,26.27083333,50.63750000
BAI,Buenos Aires Airport,9.16333333,-83.33027778
BAI,Buenos Aires Airport,9.16361111,-83.33000000
BAI,Buenos Aires Airport,9.16583333,-83.33250000
BAK,Baku Metropolitan Area,40.46750000,50.04666667
BAK,Bina International,40.46750000,50.04666667
BAK,Bina International,40.46750000,50.04666667
BAL,Batman Airport,37.92888889,41.11666667
BAL,Batman Airport,37.93166667,41.11888889
BAL,Friendship International,39.17555556,-76.67138889
BAM,Battle Mountain Airport,40.59916667,-116.87444444
BAM,Lander County,40.59750000,-116.87222222
BAO,Udorn AB,17.38305556,102.80000000
BAQ,Ernesto Cortissoz,10.88944444,-74.78055556
BAQ,Ernesto Cortissoz,10.88972222,-74.78083333
BAQ,Ernesto Cortissoz International,10.89611111,-74.77888889
BAR,Baker AAF,55.36666667,-133.60000000
BAT,Barth Airport,54.33888889,12.71138889
BAT,Chafei Amsei,-20.58500000,-48.59527778
BAT,Chafei Amsei,-20.58472222,-48.59444444
BAT,Chafei Amsei,-20.58472222,-48.59416667
BAT,Chafei Amsei,-20.58444444,-48.59416667
BAU,Bauru Airport,-22.34500000,-49.05388889
BAU,Bauru-Arealva,-22.16111111,-49.07000000
BAU,Bauru-Arealva,-22.15777778,-49.06833333
BAV,Baotou Airport,40.55944444,109.99833333
BAV,Baotou Airport,40.66666667,109.98333333
BAX,Barnaul Airport,53.36333333,83.53944444
BAX,Barnaul Airport,53.36333333,83.53972222
BAX,Barnaul Airport,53.36333333,83.53972222
BAX,Barnaul Airport,53.36333333,83.53972222
BAX,Barnaul Airport,53.36388889,83.54194444
BAX,Mikhaylovka,53.36333333,83.53972222
BAX,Mikhaylovka,53.36333333,83.53972222
BAY,Baia Mare Airport,47.65000000,23.46666667
BAY,Baia Mare Airport,47.65833333,23.46611111
BAY,Maramures,47.65833333,23.46611111
BAY,Maramures,47.65861111,23.46388889
BAZ,Barcelos Airport,-0.98138889,-62.91972222
BAZ,Barcelos Airport,-0.98138889,-62.91972222
BAZ,Barcelos Airport,-0.98111111,-62.91833333
BAZ,Barcelos Airport,-0.98111111,-62.91833333
BBA,Balmaceda Airport,-45.91666667,-71.69500000
BBA,Balmaceda Airport,-45.91611111,-71.68944444
BBC,Bay City Municipal,28.97305556,-95.86333333
BBC,Bay City Municipal,28.97333333,-95.86333333
BBC,Bay City Municipal,28.97333333,-95.86333333
BBC,Bay City Regional,28.97333333,-95.86333333
BBC,Bay City Regional,28.97333333,-95.86333333
BBD,Curtis Field,31.17916667,-99.32388889
BBF,N Eng Heliport,42.50833333,-71.18333333
BBH,Al-Baha Airport,20.29611111,41.63416667
BBI,Bhubaneswar Airport,20.24361111,85.82000000
BBI,Bhubaneswar Airport,20.24444444,85.81777778
BBI,Biju Patnaik International,20.24444444,85.81777778
BBI,Biju Patnaik International,20.25083333,85.81277778
BBK,Kasane,-17.83138889,25.16666667
BBK,Kasane,-17.83138889,25.16666667
BBK,Kasane,-17.83083333,25.16277778
BBO,Berbera International,10.38444444,44.93611111
BBO,Berbera International,10.38916667,44.94111111
BBO,Berbera International,10.38916667,44.94111111
BBO,Berbera International,10.38916667,44.94138889
BBO,Berbera International,10.38916667,44.94138889
BBO,Berbera International,10.39166667,44.95000000
BBQ,Cocoa Point,17.55555556,-61.76500000
BBQ,Cocoa Point,17.55555556,-61.76500000
BBR,Baillif,16.01333333,-61.74222222
BBR,Baillif,16.01333333,-61.74222222
BBR,Baillif,16.01361111,-61.74305556
BBR,Baillif,16.01361111,-61.74305556
BBR,Baillif,16.01611111,-61.73888889
BBS,Blackbushe Airport,51.32388889,-0.84777778
BBS,Blackbushe Airport,51.32388889,-0.84750000
BBS,Blackbushe Airport,51.32444444,-0.84055556
BBT,Berberati Airport,4.21916667,15.78805556
BBT,Berberati Airport,4.22138889,15.78638889
BBT,Berberati Airport,4.22138889,15.78638889
BBT,Berberati Airport,4.22166667,15.78638889
BBT,Berberati Airport,4.22166667,15.78638889
BBU,Aurel Vlaicu,44.50333333,26.10277778
BBU,Aurel Vlaicu,44.50333333,26.10277778
BBU,Baneasa,44.50000000,26.10000000
BBU,Baneasa Aurel Vlaicu,44.50333333,26.10277778
BBU,Baneasa Aurel Vlaicu,44.50333333,26.10277778
BBW,Broken Bow Municipal,41.43638889,-99.64222222
BBW,Broken Bow Municipal Keith Glaze Field,41.43638889,-99.64222222
BBW,Broken Bow Municipal Keith Glaze Field,41.43638889,-99.64222222
BBW,Broken Bow Municipal Kieth Glaze Field,41.43638889,-99.64222222
BBX,Blue Bell Airport,40.13666667,-75.26750000
BBX,Wings Field,40.13666667,-75.26750000
BBX,Wings Field,40.13750000,-75.26527778
BBY,Bambari Airport,5.84583333,20.64972222
BBY,Bambari Airport,5.84583333,20.64972222
BBY,Bambari Airport,5.84694444,20.64972222
BBZ,Zambezi Airport,-13.53750000,23.10777778
BBZ,Zambezi Airport,-13.53722222,23.11000000
BC1,Port Harvey Water Aerodrome,50.56888889,-126.27472222
BC2,Farewell Harbour,50.60833333,-126.84444444
BC3,Bliss Landing Water Aerodrome,50.03333333,-124.82222222
BC4,Cordero Lodge Airport,50.44666667,-125.45277778
BC5,Dent Island Lodge,50.41111111,-125.18333333
BC6,Egmont Water Aerodrome,49.75277778,-123.93027778
BC7,Sonora Resort,50.38305556,-125.15527778
BC8,Pacific Outback Resort,50.58416667,-126.75166667
BC8,Pacific Outback Resort,50.59166667,-126.76666667
BC9,Mink Island Water Aerodrome,50.11666667,-124.75000000
BCA,Gustavo Rizo,20.36444444,-74.50638889
BCA,Gustavo Rizo,20.36527778,-74.50611111
BCB,Virginia Tech Montgomery Exec,37.20944444,-80.41222222
BCB,Virginia Tech/Montgomery Executive,37.20722222,-80.40694444
BCB,Virginia Tech/Montgomery Executive,37.20777778,-80.40777778
BCC,Bear Creek Airport,57.61750000,-155.86722222
BCD,Bacolod Airport,10.64250000,122.92972222
BCD,Bacolod Airport,10.77666667,123.01916667
BCE,Bryce Canyon Airport,37.70638889,-112.14583333
BCE,Bryce Canyon Airport,37.70638889,-112.14472222
BCH,Baucau Airport,-8.49305556,126.40055556
BCH,Baucau Airport,-8.48555556,126.39944444
BCH,Cakung,-8.49305556,126.40055556
BCH,Cakung,-8.48555556,126.39944444
BCI,Barcaldine Airport,-23.56527778,145.30666667
BCI,Barcaldine Airport,-23.55916667,145.30194444
BCJ,Baca Grande,37.96666667,-105.76666667
BCL,Barra del Colorado Airport,10.76777778,-83.58583333
BCL,Barra del Colorado Airport,10.76861111,-83.58555556
BCM,Bacau Airport,46.52194444,26.91027778
BCM,Bacau Airport,46.52194444,26.91027778
BCM,Bacau Airport,46.59861111,26.88194444
BCM,George Enescu Bacau International,46.52194444,26.91027778
BCM,George Enescu Bacau International,46.52194444,26.91027778
BCN,Barcelona Airport,41.29500000,2.08777778
BCN,Barcelona Airport,41.29694444,2.07833333
BCN,Barcelona Airport,41.29694444,2.07833333
BCN,Barcelona Airport,41.29694444,2.07833333
BCN,Barcelona Airport,41.30277778,2.09444444
BCN,Barcelona El Prat,41.29694444,2.07833333
BCN,Barcelona-El Prat,41.29694444,2.07833333
BCS,Southern Seaplane,29.86611111,-90.02222222
BCT,Boca Raton Public,26.37083333,-80.10833333
BCY,Bulchi Airport,6.29222222,36.88722222
BDA,Bermuda International,32.36416667,-64.67861111
BDA,Bermuda NAS Kindley Field,32.36333333,-64.67805556
BDA,L. F. Wade International,32.36388889,-64.67777778
BDA,L. F. Wade International,32.36416667,-64.67861111
BDB,Bundaberg Airport,-24.90583333,152.32083333
BDB,Bundaberg Airport,-24.90388889,152.31861111
BDB,Bundaberg Airport,-24.90361111,152.32166667
BDE,Baudette International,48.72083333,-94.60000000
BDE,Baudette International,48.72833333,-94.61222222
BDE,Baudette International,48.73027778,-94.61111111
BDG,Blanding Municipal,37.58277778,-109.48250000
BDG,Blanding Municipal,37.58333333,-109.48333333
BDH,Bandar Lengeh Airport,26.53138889,54.82361111
BDH,Bandar Lengeh Airport,26.53222222,54.82472222
BDI,Bird Island Airport,-3.72416667,55.20527778
BDI,Bird Island Airport,-3.72416667,55.20555556
BDJ,Syamsudin Noor,-3.44222222,114.76277778
BDK,Bondoukou/Soko,8.01750000,-2.76222222
BDK,Bondoukou/Soko,8.01750000,-2.76222222
BDK,Bondoukou/Soko,8.01777778,-2.76222222
BDK,Bondoukou/Soko,8.01777778,-2.76222222
BDK,Bondoukou/Soko,8.01833333,-2.75833333
BDL,Bradley International,41.93750000,-72.68305556
BDL,Bradley International,41.93861111,-72.68333333
BDL,Bradley International,41.93888889,-72.68333333
BDL,Bradley International,41.93888889,-72.68333333
BDL,Bradley International,41.93916667,-72.68444444
BDL,Bradley International,41.93916667,-72.68333333
BDL,Bradley International,41.93916667,-72.68333333
BDM,Bandirma Airport,40.31805556,27.97750000
BDM,Bandirma Airport,40.31805556,27.97750000
BDM,Bandirma Airport,40.31805556,27.97777778
BDM,Bandirma Airport,40.31805556,27.97777778
BDM,Bandirma Airport,40.31833333,27.97722222
BDN,Badanah,30.98750000,41.00416667
BDN,Talhar,24.84166667,68.83888889
BDN,Talhar,24.84194444,68.83833333
BDO,Husein Sastranegara,-6.90194444,107.57500000
BDO,Husein Sastranegara,-6.90194444,107.57500000
BDO,Husein Sastranegara,-6.90166667,107.57583333
BDO,Husein Sastranegara,-6.90055556,107.57333333
BDO,Husein Sastranegara,-6.90055556,107.57611111
BDO,Husein Sastranegara,-6.90055556,107.57638889
BDO,Husein Sastranegara,-6.90055556,107.57638889
BDP,Chandragadhi,26.57083333,88.07888889
BDP,Chandragadhi,26.57166667,88.08000000
BDQ,Baroda Airport,22.32916667,73.22083333
BDQ,Vadodara Airport,22.32916667,73.22083333
BDQ,Vadodara Airport,22.33611111,73.22638889
BDR,Bridgeport Sikorsky,41.16361111,-73.12611111
BDR,Igor I Sikorsky Memorial,41.16333333,-73.12611111
BDR,Igor I Sikorsky Memorial,41.16416667,-73.12444444
BDS,Brindisi Airport,40.65833333,17.94694444
BDS,Brindisi/Casale,40.65805556,17.94666667
BDS,Casale,40.65833333,17.94694444
BDT,Gbadolite,4.25277778,20.97555556
BDT,Gbadolite,4.25305556,20.97555556
BDT,Gbadolite,4.25305556,20.97555556
BDT,Gbadolite,4.25333333,20.97527778
BDU,Bardufoss Airport,69.05583333,18.53888889
BDU,Bardufoss Airport,69.05583333,18.53888889
BDU,Bardufoss Airport,69.05583333,18.54027778
BDU,Bardufoss Airport,69.05583333,18.54027778
BDU,Bardufoss Airport,69.05611111,18.54000000
BDY,Bandon State,43.08638889,-124.40777778
BDY,Bandon State,43.08750000,-124.40833333
BE1,Steenokkerzeel Airport,50.91666667,4.51666667
BE2,Melsbroek AB,50.90138889,4.48444444
BEB,Benbecula Airport,57.48055556,-7.36388889
BEB,Benbecula Airport,57.48111111,-7.36305556
BEB,Benbecula Airport,57.48111111,-7.36305556
BEB,Benbecula Airport,57.48111111,-7.36277778
BEB,Benbecula Airport,57.48111111,-7.36277778
BEB,Benbecula Airport,57.48222222,-7.36472222
BEC,Beech Factory,37.69388889,-97.21500000
BEC,Beech Factory,37.69388889,-97.21500000
BEC,Beech Factory,37.69444444,-97.21500000
BEC,Beech Factory,37.69444444,-97.21500000
BED,Laurence G Hanscom Field,42.47000000,-71.28916667
BED,Laurence G Hanscom Field,42.47000000,-71.28916667
BED,Laurence G Hanscom Field,42.47000000,-71.28888889
BED,Laurence G Hanscom Field,42.47000000,-71.28888889
BED,Laurence G Hanscom Field,42.47083333,-71.29000000
BEF,Bluefields Airport,11.99083333,-83.77416667
BEF,Bluefields Airport,11.99083333,-83.77416667
BEF,Bluefields International,11.99083333,-83.77416667
BEF,Bluefields International,11.99083333,-83.77416667
BEF,Bluefields International,11.99694444,-83.76861111
BEG,Belgrade International,44.81916667,20.31222222
BEG,Belgrade International,44.81916667,20.31222222
BEG,Belgrade Nikola Tesla,44.81833333,20.31305556
BEG,Beograd,44.81750000,20.30888889
BEG,Beograd,44.81833333,20.30916667
BEG,Beograd,44.81833333,20.31305556
BEG,Beograd,44.81833333,20.31305556
BEH,Ross Field,42.12777778,-86.42833333
BEH,Southwest Michigan Regional,42.12833333,-86.42500000
BEH,Southwest Michigan Regional,42.12861111,-86.42861111
BEH,Southwest Michigan Regional,42.12861111,-86.42861111
BEH,Southwest Michigan Regional,42.12861111,-86.42611111
BEH,Southwest Michigan Regional,42.12861111,-86.42611111
BEI,Beica Airport,9.39138889,34.51944444
BEI,Beica Airport,9.39166667,34.53333333
BEL,Val de Cans International,-1.37916667,-48.47638889
BEL,Val de Cans International,-1.37916667,-48.47638889
BEL,Val de Cans International,-1.37916667,-48.47611111
BEL,Val de Cans International,-1.37916667,-48.47611111
BEL,Val de Cans International,-1.37888889,-48.47555556
BEL,Val de Cans Julio Cezar Ribeiro International,-1.37916667,-48.47611111
BEN,Benina,32.09583333,20.27500000
BEN,Benina,32.09694444,20.26944444
BEN,Benina,32.09694444,20.26944444
BEN,Benina,32.09694444,20.26944444
BEN,Benina International,32.09694444,20.26944444
BEN,Benina International,32.09694444,20.26944444
BEO,Aeropelican,-33.06611111,151.64638889
BEO,Aeropelican,-33.06611111,151.64805556
BEO,Aeropelican,-33.06611111,151.64805556
BEO,Lake Macquarie,-33.06611111,151.64638889
BEO,Lake Macquarie,-33.06611111,151.64638889
BEO,Lake Macquarie,-33.06583333,151.64638889
BER,Berlin Metropolitan Area,52.51166667,13.40138889
BER,Berlin Metropolitan Area,52.51166667,13.40250000
BES,Brest Bretagne,48.44777778,-4.41861111
BES,Brest Bretagne,48.44944444,-4.41833333
BES,Brest Bretagne,48.44944444,-4.41833333
BES,Brest Bretagne,48.44944444,-4.41694444
BES,Brest/Guipavas,48.44722222,-4.42055556
BES,Bretagne,48.44777778,-4.41861111
BES,Bretagne,48.44777778,-4.41861111
BET,Bethel Airport,60.77861111,-161.83722222
BET,Bethel Airport,60.78444444,-161.83138889
BEU,Bedourie North,-24.23000000,139.44500000
BEV,Teyman,31.28333333,34.71666667
BEV,Teyman,31.28638889,34.72250000
BEV,Teyman,31.28638889,34.72250000
BEV,Teyman,31.28666667,34.72305556
BEV,Teyman,31.28666667,34.72305556
BEW,Beira Airport,-19.79638889,34.90777778
BEW,Beira Airport,-19.79444444,34.91194444
BEY,Beirut International,33.81277778,35.49027778
BEY,Rafic Hariri International,33.81805556,35.48388889
BEY,Rafic Hariri International,33.81805556,35.48388889
BEY,Rafic Hariri International,33.81916667,35.49000000
BEY,Rafic Hariri International,33.81916667,35.49000000
BEY,Rafic Hariri International,33.82055556,35.48777778
BFB,Blue Fox Bay Airport,58.18333333,-152.13333333
BFD,Bradford Regional,41.80222222,-78.63944444
BFD,Bradford Regional,41.80305556,-78.64000000
BFF,Western Neb. Regional/William B. Heilig Field,41.87416667,-103.59555556
BFF,Western Neb. Regional/William B. Heilig Field,41.87527778,-103.60111111
BFF,William B. Heilig Field,41.87527778,-103.60111111
BFG,Bullfrog Basin,37.54583333,-110.71333333
BFI,Boeing Field/King County International,47.53000000,-122.30194444
BFI,King County Airport-Boeing Field,47.52888889,-122.29944444
BFK,Buckley AFB,39.70166667,-104.75166667
BFK,Buckley Air National Guard Base,39.70166667,-104.75166667
BFK,Buckley Sfb,39.70166667,-104.75166667
BFL,Meadows Field,35.43000000,-119.05222222
BFL,Meadows Field,35.43361111,-119.05666667
BFL,Meadows Field,35.43388889,-119.05777778
BFM,Mobile Aerospace,30.62638889,-88.06805556
BFM,Mobile Downtown,30.62666667,-88.06805556
BFM,Mobile International,30.62666667,-88.06805556
BFN,Bloemfontein International,-29.09277778,26.30250000
BFN,Bloemfontein International,-29.09277778,26.30250000
BFN,Bloemfontein International,-29.09222222,26.30277778
BFN,Bram Fischer International,-29.09277778,26.30250000
BFN,Bram Fischer International,-29.09277778,26.30250000
BFO,Buffalo Range Airport,-21.00916667,31.57916667
BFO,Buffalo Range Airport,-21.00916667,31.57916667
BFO,Buffalo Range Airport,-21.00805556,31.57861111
BFP,Beaver County,40.77222222,-80.39111111
BFP,Beaver County,40.77250000,-80.39138889
BFQ,Bahia de Pinas Airport,7.58333333,-78.20000000
BFR,Virgil I Grissom Municipal,38.84000000,-86.44527778
BFR,Virgil I Grissom Municipal,38.84000000,-86.44527778
BFS,Aldergrove,54.65750000,-6.21583333
BFS,Aldergrove,54.65750000,-6.21583333
BFS,Belfast Aldergrove,54.65750000,-6.21583333
BFS,Belfast Aldergrove,54.65750000,-6.21583333
BFS,Belfast International (Aldergrove),54.65416667,-6.22500000
BFT,Beaufort County,32.41194444,-80.63472222
BFT,Beaufort County,32.41222222,-80.63444444
BFT,Beaufort Executive,32.41222222,-80.63444444
BG1,Graf Ingratievo Airport,42.29055556,24.71388889
BGA,Palonegro,7.12611111,-73.18472222
BGA,Palonegro,7.12611111,-73.18472222
BGA,Palonegro,7.12638889,-73.18472222
BGA,Palonegro,7.12666667,-73.18472222
BGA,Palonegro,7.12666667,-73.18472222
BGB,Booue Airport,-0.10750000,11.94361111
BGB,Booue Airport,-0.10666667,11.93888889
BGD,Hutchinson County,35.70083333,-101.39361111
BGD,Hutchinson County,35.70083333,-101.39305556
BGE,Decatur County Industrial Air Park,30.97166667,-84.63750000
BGE,Decatur County Industrial Air Park,30.97166667,-84.63694444
BGF,Bangui-M'Poko,4.39611111,18.52027778
BGF,Bangui-M'Poko,4.39944444,18.51944444
BGH,Abbaye,16.63333333,-14.20000000
BGI,Grantley Adams International,13.07222222,-59.49305556
BGI,Grantley Adams International,13.07472222,-59.49250000
BGI,Grantley Adams International,13.07472222,-59.49250000
BGI,Grantley Adams International,13.07472222,-59.49222222
BGI,Grantley Adams International,13.07472222,-59.49222222
BGL,Baglung Airport,28.21277778,83.66527778
BGL,Baglung Airport,28.21277778,83.66638889
BGL,Baglung Airport,28.21277778,83.66638889
BGL,Baglung Airport,28.21361111,83.66527778
BGL,Baglung Airport,28.21361111,83.66527778
BGL,Baglung Airport,28.21361111,83.66611111
BGL,Baglung Airport,28.21361111,83.66611111
BGM,Greater Binghamton/Edwin A. Link Field,42.20138889,-75.96916667
BGM,Greater Binghamton/Edwin A. Link Field,42.20833333,-75.97972222
BGM,Greater Binghamton/Edwin A. Link Field,42.20833333,-75.97972222
BGM,Greater Binghamton/Edwin A. Link Field,42.20861111,-75.97972222
BGM,Greater Binghamton/Edwin A. Link Field,42.20861111,-75.97972222
BGN,Bagabag Airport,16.62111111,121.25027778
BGN,Bruggen Airport,51.19972222,6.13222222
BGN,Bruggen Airport,51.20055556,6.13333333
BGN,Bruggen Airport,51.20055556,6.13333333
BGO,Flesland,60.29333333,5.21805556
BGO,Flesland,60.29361111,5.21944444
BGQ,Big Lake Airport,61.53472222,-149.81250000
BGQ,Big Lake Airport,61.53472222,-149.81250000
BGQ,Big Lake Airport,61.53583333,-149.81250000
BGQ,Big Lake Airport,61.53611111,-149.81388889
BGQ,Big Lake Airport,61.53611111,-149.81388889
BGR,Bangor International,44.80750000,-68.82805556
BGR,Bangor International,44.80777778,-68.82777778
BGS,Big Spring McMahon-Wrinkle,32.21250000,-101.52166667
BGS,Big Spring McMahon-Wrinkle,32.21444444,-101.52500000
BGT,Bagdad Airport,34.59277778,-113.17194444
BGT,Bagdad Airport,34.59277778,-113.17194444
BGT,Bagdad Airport,34.59333333,-113.17083333
BGT,Bagdad Airport,34.59583333,-113.17027778
BGT,Bagdad Airport,34.59583333,-113.17027778
BGU,Bangassou Airport,4.78583333,22.78250000
BGU,Bangassou Airport,4.78611111,22.78250000
BGU,Bangassou Airport,4.78666667,22.78444444
BGU,Bangassou Airport,4.78666667,22.78444444
BGW,Al Muthana,33.33277778,44.36388889
BGW,Muthanna,33.25555556,44.22500000
BGX,Comandante Gustavo Kraemer,-31.39861111,-54.11250000
BGX,Comandante Gustavo Kraemer,-31.39055556,-54.11222222
BGX,Comandante Gustavo Kraemer,-31.39055556,-54.11222222
BGX,Comandante Gustavo Kraemer,-31.39055556,-54.11194444
BGX,Comandante Gustavo Kraemer,-31.39055556,-54.11194444
BGY,Bergamo Orio Al Serio,45.66888889,9.70416667
BGY,Bergamo Orio Al Serio,45.66888889,9.70416667
BGY,Bergamo Orio Al Serio,45.67194444,9.70666667
BGY,Bergamo Orio Al Serio,45.67194444,9.70694444
BGY,Bergamo Orio Al Serio,45.67388889,9.70416667
BGY,Bergamo Orio Al Serio,45.67388889,9.70416667
BGY,Bergamo/Orio Al Serio,45.66833333,9.70027778
BH1,Isa AB,25.91833333,50.59055556
BHB,Hancock County-Bar Harbor,44.44888889,-68.36166667
BHB,Hancock County-Bar Harbor,44.44972222,-68.36166667
BHB,Hancock County-Bar Harbor,44.44972222,-68.36138889
BHC,Laughlin Bullhead International,35.16333333,-114.56444444
BHD,Belfast City,54.61722222,-5.87083333
BHD,Belfast City,54.61805556,-5.87250000
BHE,Woodbourne,-41.51777778,173.86944444
BHE,Woodbourne,-41.51666667,173.87222222
BHG,Araslaya,15.73472222,-84.54333333
BHG,Araslaya,15.73555556,-84.54277778
BHG,Araslaya,15.73555556,-84.54277778
BHG,Araslaya,15.73555556,-84.54250000
BHG,Araslaya,15.73555556,-84.54250000
BHH,Bisha Airport,19.98416667,42.62305556
BHH,Bisha Airport,19.98611111,42.62500000
BHI,Comandante Espora,-38.72555556,-62.16888889
BHI,Comandante Espora Nab,-38.73055556,-62.15055556
BHJ,Bhuj Airport,23.28750000,69.67055556
BHJ,Bhuj Airport,23.28777778,69.67027778
BHJ,Bhuj Airport,23.28777778,69.67027778
BHJ,Bhuj Airport,23.28805556,69.67027778
BHJ,Bhuj Airport,23.28805556,69.67027778
BHK,Bukhara Airport,39.76666667,64.48333333
BHK,Bukhara Airport,39.76666667,64.48333333
BHK,Bukhara Airport,39.77527778,64.48222222
BHK,Bukhara International,39.77527778,64.48222222
BHL,Bahia de Los Angeles North,28.97555556,-113.56333333
BHL,Bahia de Los Angeles North,28.97555556,-113.56333333
BHL,Bahia de Los Angeles North,28.97666667,-113.56027778
BHL,Bahia de Los Angeles North,28.97666667,-113.56027778
BHM,Birmingham Airport,33.56305556,-86.75555556
BHM,Birmingham International,33.56305556,-86.75555556
BHM,Birmingham-Shuttlesworth International,33.56305556,-86.75555556
BHM,Birmingham-Shuttlesworth International,33.56388889,-86.75222222
BHN,Beihan Airport,14.78055556,45.71833333
BHN,Beihan Airport,14.78055556,45.71833333
BHN,Beihan Airport,14.78194444,45.72000000
BHN,Beihan Airport,14.78194444,45.72000000
BHN,Beihan Airport,14.78222222,45.71972222
BHN,Beihan Airport,14.78222222,45.71972222
BHO,Bhopal Airport,23.28472222,77.33861111
BHO,Raja Bhoj,23.28888889,77.33000000
BHQ,Broken Hill Airport,-32.00166667,141.46666667
BHQ,Broken Hill Airport,-32.00138889,141.47166667
BHR,Bharatpur Airport,27.67638889,84.43250000
BHR,Bharatpur Airport,27.67694444,84.42833333
BHR,Bharatpur Airport,27.67694444,84.42833333
BHR,Bharatpur Airport,27.67722222,84.42861111
BHR,Bharatpur Airport,27.67722222,84.42861111
BHS,Bathurst Airport,-33.41111111,149.65277778
BHS,Bathurst Airport,-33.40944444,149.65194444
BHT,Brighton Downs Airport,-23.35000000,141.55000000
BHU,Bhavnagar Airport,21.75222222,72.18555556
BHU,Bhavnagar Airport,21.75500000,72.18444444
BHV,Bahawalpur International,29.34444444,71.71250000
BHV,Bahawalpur International,29.34694444,71.71138889
BHV,Bahawalpur International,29.34694444,71.71138889
BHV,Bahawalpur International,29.34805556,71.71805556
BHV,Bahawalpur International,29.34805556,71.71805556
BHV,Bahawalpur International,29.34833333,71.71805556
BHX,Birmingham Airport,52.45305556,-1.74638889
BHX,Birmingham Airport,52.45388889,-1.74805556
BHX,Birmingham Airport,52.45388889,-1.74805556
BHX,Birmingham Airport,52.45416667,-1.74861111
BHX,Birmingham Airport,52.45416667,-1.74861111
BHY,Beihai Airport,21.53944444,109.29388889
BHZ,Belo Horizonte Metropolitan Area,-19.91666667,-43.93333333
BIA,Bastia Poretta,42.55250000,9.48361111
BIA,Bastia Poretta,42.55250000,9.48361111
BIA,Bastia/Poretta,42.54916667,9.48611111
BIA,Poretta,42.55000000,9.48472222
BIA,Poretta,42.55000000,9.48472222
BIA,Poretta,42.55250000,9.48361111
BIC,Big Creek Airport,57.66666667,-157.58333333
BID,Block Island State,41.16666667,-71.57916667
BID,Block Island State,41.16805556,-71.57777778
BIE,Beatrice Municipal,40.29888889,-96.75333333
BIE,Beatrice Municipal,40.30138889,-96.75416667
BIF,Biggs AAF,31.84944444,-106.38000000
BIF,Biggs AAF,31.84944444,-106.37944444
BIG,Allen AAF,63.99361111,-145.71888889
BIG,Allen AAF,63.99472222,-145.72027778
BIH,Bishop Airport,37.37305556,-118.36361111
BIH,Bishop Airport,37.37305556,-118.36361111
BIH,Eastern Sierra Regional,37.37305556,-118.36361111
BIH,Eastern Sierra Regional,37.37305556,-118.36361111
BIH,Eastern Sierra Regional,37.37333333,-118.36500000
BII,Bikini Atoll Airport,11.52166667,165.56444444
BIK,Manuhua,-1.18666667,136.08555556
BIL,Billings Logan International,45.80694444,-108.54277778
BIL,Billings Logan International,45.80777778,-108.54361111
BIL,Billings Logan International,45.80777778,-108.54277778
BIM,Bimini International,25.69944444,-79.26555556
BIN,Bamyan Airport,34.80416667,67.82361111
BIN,Bamyan Airport,34.80916667,67.81750000
BIN,Bamyan Airport,34.80944444,67.81888889
BIO,Bilbao Airport,43.30111111,-2.91055556
BIO,Bilbao Airport,43.30166667,-2.91750000
BIO,Bilbao Airport,43.30277778,-2.92166667
BIP,Bulimba Airport,-16.88305556,143.48138889
BIQ,Anglet,43.46833333,-1.52333333
BIQ,Anglet,43.46833333,-1.52333333
BIQ,Anglet,43.46861111,-1.52250000
BIQ,Biarritz Bayonne Anglet,43.46833333,-1.52333333
BIQ,Biarritz Pays Basque,43.46833333,-1.52333333
BIQ,Biarritz Pays Basque,43.46833333,-1.52333333
BIR,Biratnagar Airport,26.43472222,87.28333333
BIR,Biratnagar Airport,26.48138889,87.26416667
BIR,Biratnagar Airport,26.48138889,87.26416667
BIR,Biratnagar Airport,26.48222222,87.26361111
BIR,Biratnagar Airport,26.48222222,87.26361111
BIS,Bismarck Municipal,46.77277778,-100.74583333
BIS,Bismarck Municipal,46.77888889,-100.75250000
BIV,Bria Airport,6.52805556,21.98861111
BIV,Bria Airport,6.52833333,21.98888889
BIX,Keesler AFB,30.41055556,-88.92444444
BIX,Keesler AFB,30.41111111,-88.92361111
BJC,Rocky Mountain Metro,39.90888889,-105.11722222
BJC,Rocky Mountain Metro,39.90888889,-105.11722222
BJC,Rocky Mountain Metropolitan,39.90888889,-105.11722222
BJC,Rocky Mountain Metropolitan,39.90888889,-105.11722222
BJI,Bemidji Municipal,47.50972222,-94.93472222
BJI,Bemidji Regional,47.50944444,-94.93361111
BJI,Bemidji Regional,47.51083333,-94.93472222
BJI,Bemidji/Beltrami County,47.50944444,-94.93361111
BJJ,Wayne County,40.87472222,-81.88833333
BJJ,Wayne County,40.87472222,-81.88694444
BJJ,Wayne County,40.87472222,-81.88666667
BJL,Banjul International,13.33722222,-16.65444444
BJL,Banjul International,13.33777778,-16.65222222
BJM,Bujumbura International,-3.33166667,29.32083333
BJM,Bujumbura International,-3.32388889,29.31861111
BJR,Bahir Dar Airport,11.59027778,37.38472222
BJR,Bahir Dar Airport,11.60833333,37.32166667
BJR,Bahir Dar Airport,11.60833333,37.32166667
BJR,Bahir Dar Ginbot Haya International,11.60611111,37.31944444
BJR,Bahir Dar Ginbot Haya International,11.60833333,37.32166667
BJR,Bahir Dar Ginbot Haya International,11.60833333,37.32166667
BJU,Bajura Airport,29.50194444,81.66861111
BJU,Bajura Airport,29.50194444,81.66861111
BJU,Bajura Airport,29.50277778,81.66861111
BJU,Bajura Airport,29.50305556,81.66833333
BJU,Bajura Airport,29.50305556,81.66833333
BJU,Bajura Airport,29.50361111,81.66833333
BJV,Imsik,37.14000000,27.66944444
BJV,Imsik,37.14055556,27.66861111
BJX,Guanajuato International,20.99138889,-101.48000000
BJX,Guanajuato International,20.99333333,-101.48083333
BJX,Leon International,20.99333333,-101.48083333
BJZ,Badajoz Airport,38.89138889,-6.82138889
BJZ,Badajoz Airport,38.89138889,-6.82138889
BJZ,Badajoz Airport,38.89138889,-6.82138889
BJZ,Talavera La Real,38.89111111,-6.82138889
BJZ,Talavera La Real,38.89111111,-6.82138889
BJZ,Talavera La Real,38.89138889,-6.82138889
BKC,Buckland Airport,65.97888889,-161.12666667
BKC,Buckland Airport,65.98166667,-161.14916667
BKE,Baker City Municipal,44.83722222,-117.80916667
BKE,Baker City Municipal,44.83833333,-117.81000000
BKF,Brooks Lake Airport,58.60000000,-156.23333333
BKG,Branson Airport,36.53194444,-93.20055556
BKH,Barking Sands PMRF,22.02277778,-159.78500000
BKH,Barking Sands Pacific Missile Range Facility,22.02166667,-159.78666667
BKI,Kota Kinabalu International,5.93388889,116.04972222
BKI,Kota Kinabalu International,5.93388889,116.04972222
BKI,Kota Kinabalu International,5.93722222,116.05111111
BKI,Kota Kinabalu International,5.93722222,116.05111111
BKI,Kota Kinabalu International,5.94083333,116.05000000
BKK,Bangkok International,13.91111111,100.60833333
BKK,Suvarnabhumi International,13.68083333,100.74777778
BKK,Suvarnabhumi International,13.68111111,100.74722222
BKL,Burke Lakefront,41.51750000,-81.68333333
BKL,Burke Lakefront,41.51750000,-81.68333333
BKL,Burke Lakefront,41.51777778,-81.68277778
BKL,Burke Lakefront,41.51777778,-81.68277778
BKL,Lakefront,41.51694444,-81.68333333
BKM,Bakelalan Airport,3.97361111,115.61722222
BKM,Bakelalan Airport,3.97361111,115.61722222
BKM,Bakelalan Airport,3.97444444,115.61666667
BKM,Bakelalan Airport,3.97444444,115.61666667
BKM,Bakelalan Airport,3.98500000,115.62000000
BKO,Modibo Keita,12.53777778,-7.94333333
BKO,Modibo Keita,12.53777778,-7.94333333
BKO,President Modibo Keita,12.53777778,-7.94333333
BKO,Senou,12.53361111,-7.95000000
BKO,Senou,12.53361111,-7.95000000
BKO,Senou,12.53472222,-7.94805556
BKO,Senou,12.53611111,-7.94611111
BKO,Senou,12.53777778,-7.94333333
BKQ,Blackall Airport,-24.43416667,145.42833333
BKQ,Blackall Airport,-24.43194444,145.42861111
BKQ,Blackall Airport,-24.42777778,145.42861111
BKS,Fatmawati Soekarno,-3.86388889,102.33916667
BKS,Fatmawati Soekarno,-3.86388889,102.33916667
BKS,Fatmawati Soekarno,-3.86388889,102.33916667
BKS,Fatmawati Soekarno,-3.86111111,102.33944444
BKS,Fatmawati Soekarno,-3.86111111,102.33944444
BKS,Padangkemiling,-3.86472222,102.33833333
BKT,Allen C Perkinson Blackstone AAF,37.07444444,-77.95722222
BKU,Betioky Airport,-23.73361111,44.39083333
BKU,Betioky Airport,-23.73361111,44.39083333
BKU,Betioky Airport,-23.73305556,44.39027778
BKU,Betioky Airport,-23.73305556,44.39027778
BKU,Betioky Airport,-23.73222222,44.39111111
BKU,Betioky Airport,-23.73222222,44.39111111
BKW,Raleigh County Memorial,37.78194444,-81.12416667
BKW,Raleigh County Memorial,37.78722222,-81.12416667
BKX,Brookings Regional,44.30333333,-96.81111111
BKX,Brookings Regional,44.30444444,-96.81888889
BKX,Brookings Regional,44.30444444,-96.81888889
BKX,Brookings Regional,44.30472222,-96.81694444
BKX,Brookings Regional,44.30472222,-96.81694444
BKY,Bukavu Kavumu,-2.30888889,28.80888889
BKZ,Bukoba Airport,-1.33138889,31.82055556
BKZ,Bukoba Airport,-1.33138889,31.82055556
BKZ,Bukoba Airport,-1.33083333,31.82000000
BKZ,Bukoba Airport,-1.33083333,31.82000000
BKZ,Bukoba Airport,-1.30000000,31.80000000
BLA,Campo Nuevo,10.10972222,-64.68750000
BLA,General Jose Antonio Anzoategui International,10.10722222,-64.68916667
BLA,General Jose Antonio Anzoategui International,10.10722222,-64.68916667
BLA,General Jose Antonio Anzoategui International,10.11000000,-64.69055556
BLA,General Jose Antonio Anzoategui International,10.11000000,-64.69055556
BLB,Albrook AFB,8.97083333,-79.55638889
BLC,Bali Airport,5.89166667,10.02500000
BLD,Boulder City Municipal,35.94722222,-114.86111111
BLD,Boulder City Municipal,35.94722222,-114.86027778
BLD,Boulder City Municipal,35.94750000,-114.86138889
BLD,Boulder City Municipal,35.94750000,-114.86138889
BLD,Boulder City Municipal,35.94750000,-114.86111111
BLD,Boulder City Municipal,35.94750000,-114.86111111
BLE,Borlange Airport,60.42194444,15.51527778
BLE,Borlange Airport,60.42222222,15.51527778
BLE,Borlange Airport,60.42333333,15.51805556
BLF,Mercer County,37.29583333,-81.20805556
BLF,Mercer County,37.29583333,-81.20777778
BLF,Mercer County,37.29583333,-81.20750000
BLG,Belaga Airport,2.63611111,113.76055556
BLG,Belaga Airport,2.64444444,113.76250000
BLH,Blythe Airport,33.61916667,-114.71694444
BLH,Blythe Airport,33.62083333,-114.71888889
BLI,Bellingham International,48.79277778,-122.53750000
BLI,Bellingham International,48.79444444,-122.53472222
BLJ,Mostepha Ben Boulaid,35.75194444,6.30944444
BLK,Blackpool Airport,53.77138889,-3.02833333
BLK,Blackpool Airport,53.77138889,-3.02833333
BLK,Blackpool Airport,53.77166667,-3.02861111
BLK,Blackpool Airport,53.77166667,-3.02861111
BLK,Blackpool Airport,53.77194444,-3.03833333
BLK,Blackpool Airport,53.77194444,-3.03611111
BLL,Billund Airport,55.74027778,9.15166667
BLL,Billund Airport,55.74027778,9.15277778
BLL,Billund Airport,55.74055556,9.15694444
BLM,Monmouth Executive,40.18666667,-74.12500000
BLM,Monmouth Executive,40.18666667,-74.12444444
BLO,Blonduos Airport,65.64500000,-20.28750000
BLO,Blonduos/Hjaltabakki,65.64555556,-20.28666667
BLP,Bellavista 1,-7.06416667,-76.58638889
BLP,Bellavista 1,-7.06416667,-76.58638889
BLP,Bellavista 1,-7.06027778,-76.58222222
BLP,Bellavista 1,-7.06027778,-76.58222222
